{
"type": "FeatureCollection",
"crs": { "type": "name", "properties": { "name": "urn:ogc:def:crs:OGC:1.3:CRS84" } },
"features": [
{ "type": "Feature", "properties": { "PRJ_ID": 1, "PRJ_NAME": "D'Olive Watershed Restoration", "ST_PROV": "Alabama", "PRJ_ACTPRIME": "Water Quality Restoration and Maintenance", "2010": 0, "2011": 0, "2012": 0, "2013": 6781000, "2014": 0, "2015": 0, "2016": 0, "2017": 0, "Tot_DWH_Fund_Cont": 6781000, "longitude": -87.88805392, "latitude": 30.65278617 }, "geometry": { "type": "Point", "coordinates": [ -87.88805392, 30.65278617 ] } },
{ "type": "Feature", "properties": { "PRJ_ID": 2, "PRJ_NAME": "Coastal Bird Stewardship Program in Mississippi", "ST_PROV": "Mississippi", "PRJ_ACTPRIME": "Species Restoration", "2010": 0, "2011": 0, "2012": 0, "2013": 1604000, "2014": 0, "2015": 0, "2016": 0, "2017": 0, "Tot_DWH_Fund_Cont": 1604000, "longitude": -89.04957503, "latitude": 30.37560704 }, "geometry": { "type": "Point", "coordinates": [ -89.04957503, 30.37560704 ] } },
{ "type": "Feature", "properties": { "PRJ_ID": 3, "PRJ_NAME": "Caminada Beach and Dune Restoration Increment II: Engineering and Design", "ST_PROV": "Louisiana", "PRJ_ACTPRIME": "Engineering and\/or Construction", "2010": 0, "2011": 0, "2012": 0, "2013": 2654830, "2014": 0, "2015": 0, "2016": 0, "2017": 0, "Tot_DWH_Fund_Cont": 2654830, "longitude": -90.12879875, "latitude": 29.145896 }, "geometry": { "type": "Point", "coordinates": [ -90.12879875, 29.145896 ] } },
{ "type": "Feature", "properties": { "PRJ_ID": 4, "PRJ_NAME": "Eliminating Light Pollution on Sea Turtle Nesting Beaches", "ST_PROV": "Florida", "PRJ_ACTPRIME": "Species Restoration", "2010": 0, "2011": 0, "2012": 0, "2013": 1500000, "2014": 0, "2015": 0, "2016": 0, "2017": 0, "Tot_DWH_Fund_Cont": 1500000, "longitude": -85.34866656, "latitude": 29.88525714 }, "geometry": { "type": "Point", "coordinates": [ -85.34866656, 29.88525714 ] } },
{ "type": "Feature", "properties": { "PRJ_ID": 5, "PRJ_NAME": "Louisiana Oyster Cultch Project", "ST_PROV": "Louisiana", "PRJ_ACTPRIME": "Habitat Restoration and Enhancement", "2010": 0, "2011": 0, "2012": 14874300, "2013": 0, "2014": 0, "2015": 0, "2016": 0, "2017": 0, "Tot_DWH_Fund_Cont": 14874300, "longitude": -89.59937245, "latitude": 29.57576201 }, "geometry": { "type": "Point", "coordinates": [ -89.59937245, 29.57576201 ] } },
{ "type": "Feature", "properties": { "PRJ_ID": 6, "PRJ_NAME": "Lake Hermitage Marsh Creation - NRDA Early Restoration Project", "ST_PROV": "Louisiana", "PRJ_ACTPRIME": "Habitat Restoration and Enhancement", "2010": 0, "2011": 0, "2012": 13200000, "2013": 0, "2014": 0, "2015": 0, "2016": 0, "2017": 0, "Tot_DWH_Fund_Cont": 13200000, "longitude": -89.848, "latitude": 29.54936 }, "geometry": { "type": "Point", "coordinates": [ -89.848, 29.54936 ] } },
{ "type": "Feature", "properties": { "PRJ_ID": 7, "PRJ_NAME": "Marsh Island (Portersville Bay) Restoration Project", "ST_PROV": "Alabama", "PRJ_ACTPRIME": "Habitat Restoration and Enhancement", "2010": 0, "2011": 0, "2012": 9400000, "2013": 0, "2014": 0, "2015": 0, "2016": 0, "2017": 0, "Tot_DWH_Fund_Cont": 9400000, "longitude": -88.132247, "latitude": 30.191519 }, "geometry": { "type": "Point", "coordinates": [ -88.132247, 30.191519 ] } },
{ "type": "Feature", "properties": { "PRJ_ID": 8, "PRJ_NAME": "Powderhorn Ranch Land Acquisition", "ST_PROV": "Texas", "PRJ_ACTPRIME": "Land Acquisition \/ Protection", "2010": 0, "2011": 0, "2012": 0, "2013": 0, "2014": 34493800, "2015": 0, "2016": 0, "2017": 0, "Tot_DWH_Fund_Cont": 34493800, "longitude": -96.49273979, "latitude": 28.46000477 }, "geometry": { "type": "Point", "coordinates": [ -96.49273979, 28.46000477 ] } },
{ "type": "Feature", "properties": { "PRJ_ID": 9, "PRJ_NAME": "Sea Rim State Park Coastal Dune Restoration", "ST_PROV": "Texas", "PRJ_ACTPRIME": "Habitat Restoration and Enhancement", "2010": 0, "2011": 0, "2012": 0, "2013": 189400, "2014": 0, "2015": 0, "2016": 0, "2017": 0, "Tot_DWH_Fund_Cont": 189400, "longitude": -94.03159683, "latitude": 29.67849081 }, "geometry": { "type": "Point", "coordinates": [ -94.03159683, 29.67849081 ] } },
{ "type": "Feature", "properties": { "PRJ_ID": 10, "PRJ_NAME": "Expanding Contaminated Sediment Sampling In Gulf Coast Beaches", "ST_PROV": "FL, GA", "PRJ_ACTPRIME": "Chemical Aspects Research", "2010": 0, "2011": 69171, "2012": 0, "2013": 0, "2014": 0, "2015": 0, "2016": 0, "2017": 0, "Tot_DWH_Fund_Cont": 69171, "longitude": -84.30180269, "latitude": 30.44443235 }, "geometry": { "type": "Point", "coordinates": [ -84.30180269, 30.44443235 ] } },
{ "type": "Feature", "properties": { "PRJ_ID": 11, "PRJ_NAME": "Seven Runs Creek Easement", "ST_PROV": "Florida", "PRJ_ACTPRIME": "Land Acquisition \/ Protection", "2010": 0, "2011": 0, "2012": 2400000, "2013": 0, "2014": 0, "2015": 0, "2016": 0, "2017": 0, "Tot_DWH_Fund_Cont": 2400000, "longitude": -85.9434978, "latitude": 30.55218206 }, "geometry": { "type": "Point", "coordinates": [ -85.9434978, 30.55218206 ] } },
{ "type": "Feature", "properties": { "PRJ_ID": 12, "PRJ_NAME": "Escribano Point", "ST_PROV": "Florida", "PRJ_ACTPRIME": "Land Acquisition \/ Protection", "2010": 0, "2011": 0, "2012": 2470000, "2013": 0, "2014": 0, "2015": 0, "2016": 0, "2017": 0, "Tot_DWH_Fund_Cont": 2470000, "longitude": -86.9930107, "latitude": 30.49209804 }, "geometry": { "type": "Point", "coordinates": [ -86.9930107, 30.49209804 ] } },
{ "type": "Feature", "properties": { "PRJ_ID": 13, "PRJ_NAME": "South Padre Island", "ST_PROV": "Texas", "PRJ_ACTPRIME": "Land Acquisition \/ Protection", "2010": 0, "2011": 0, "2012": 1198350, "2013": 0, "2014": 0, "2015": 0, "2016": 0, "2017": 0, "Tot_DWH_Fund_Cont": 1198350, "longitude": -97.20230014000001, "latitude": 26.28671874 }, "geometry": { "type": "Point", "coordinates": [ -97.20230014, 26.28671874 ] } },
{ "type": "Feature", "properties": { "PRJ_ID": 14, "PRJ_NAME": "Big Tree Ranch Acquisition", "ST_PROV": "Texas", "PRJ_ACTPRIME": "Land Acquisition \/ Protection", "2010": 0, "2011": 0, "2012": 1900000, "2013": 0, "2014": 0, "2015": 0, "2016": 0, "2017": 0, "Tot_DWH_Fund_Cont": 1900000, "longitude": -96.97753447, "latitude": 28.15447006 }, "geometry": { "type": "Point", "coordinates": [ -96.97753447, 28.15447006 ] } },
{ "type": "Feature", "properties": { "PRJ_ID": 15, "PRJ_NAME": "OIL: Comprehensive Study of the Impact of the Deepwater Horizon Oil Spill on the Health and Productivity of Gulf Coast Salt Marshes", "ST_PROV": "GA, MS", "PRJ_ACTPRIME": "Environmental Effects Research", "2010": 0, "2011": 99741, "2012": 0, "2013": 0, "2014": 0, "2015": 0, "2016": 0, "2017": 0, "Tot_DWH_Fund_Cont": 99741, "longitude": -88.79588359, "latitude": 33.46483563 }, "geometry": { "type": "Point", "coordinates": [ -88.79588359, 33.46483563 ] } },
{ "type": "Feature", "properties": { "PRJ_ID": 16, "PRJ_NAME": "Consortium for the Molecular Engineering of Dispersant Systems (C-MEDS)", "ST_PROV": "AL, AZ, CO, DC, FL, GA, LA, MA, MD, MI, MN, MS, NC, NJ, NY, PA, RI, TX, KOR", "PRJ_ACTPRIME": "Oil System Safety Research", "2010": 0, "2011": 10338000, "2012": 0, "2013": 0, "2014": 0, "2015": 0, "2016": 0, "2017": 0, "Tot_DWH_Fund_Cont": 10338000, "longitude": -90.11969806000001, "latitude": 29.941011 }, "geometry": { "type": "Point", "coordinates": [ -90.11969806, 29.941011 ] } },
{ "type": "Feature", "properties": { "PRJ_ID": 17, "PRJ_NAME": "Coastal Waters Consortium (CWC)", "ST_PROV": "CT, DC, FL, LA, MA, MD, MN, NC, NH, NJ, OH , PA, PR, TN, TX, VA, VT, WI, PRI", "PRJ_ACTPRIME": "Chemical Aspects Research", "2010": 0, "2011": 12185000, "2012": 0, "2013": 0, "2014": 0, "2015": 0, "2016": 0, "2017": 0, "Tot_DWH_Fund_Cont": 12185000, "longitude": -90.66172589, "latitude": 29.25448062 }, "geometry": { "type": "Point", "coordinates": [ -90.66172589, 29.25448062 ] } },
{ "type": "Feature", "properties": { "PRJ_ID": 18, "PRJ_NAME": "Alabama Dune Restoration Cooperative Project", "ST_PROV": "Alabama", "PRJ_ACTPRIME": "Habitat Restoration and Enhancement", "2010": 0, "2011": 0, "2012": 1300000, "2013": 0, "2014": 0, "2015": 0, "2016": 0, "2017": 0, "Tot_DWH_Fund_Cont": 1300000, "longitude": -87.819948, "latitude": 30.229264 }, "geometry": { "type": "Point", "coordinates": [ -87.819948, 30.229264 ] } },
{ "type": "Feature", "properties": { "PRJ_ID": 19, "PRJ_NAME": "Expansion of Maurepas Wildlife Management Area", "ST_PROV": "Louisiana", "PRJ_ACTPRIME": "Land Acquisition \/ Protection", "2010": 0, "2011": 0, "2012": 6700000, "2013": 0, "2014": 0, "2015": 0, "2016": 0, "2017": 0, "Tot_DWH_Fund_Cont": 6700000, "longitude": -90.6199575, "latitude": 30.23959828 }, "geometry": { "type": "Point", "coordinates": [ -90.6199575, 30.23959828 ] } },
{ "type": "Feature", "properties": { "PRJ_ID": 20, "PRJ_NAME": "Apalachicola Bay Oyster Restoration", "ST_PROV": "Florida", "PRJ_ACTPRIME": "Species Restoration", "2010": 0, "2011": 0, "2012": 0, "2013": 4189400, "2014": 0, "2015": 0, "2016": 0, "2017": 0, "Tot_DWH_Fund_Cont": 4189400, "longitude": -84.92862541, "latitude": 29.68307987 }, "geometry": { "type": "Point", "coordinates": [ -84.92862541, 29.68307987 ] } },
{ "type": "Feature", "properties": { "PRJ_ID": 21, "PRJ_NAME": "Bayou L'Ours Marsh Terracing", "ST_PROV": "Louisiana", "PRJ_ACTPRIME": "Habitat Restoration and Enhancement", "2010": 0, "2011": 0, "2012": 0, "2013": 0, "2014": 973096, "2015": 0, "2016": 0, "2017": 0, "Tot_DWH_Fund_Cont": 973096, "longitude": -90.26545181, "latitude": 29.40604582 }, "geometry": { "type": "Point", "coordinates": [ -90.26545181, 29.40604582 ] } },
{ "type": "Feature", "properties": { "PRJ_ID": 22, "PRJ_NAME": "Bayou Sauvage Protection", "ST_PROV": "Louisiana", "PRJ_ACTPRIME": "Land Acquisition \/ Protection", "2010": 0, "2011": 0, "2012": 0, "2013": 0, "2014": 888735, "2015": 0, "2016": 0, "2017": 0, "Tot_DWH_Fund_Cont": 888735, "longitude": -89.88117646000001, "latitude": 30.1127105 }, "geometry": { "type": "Point", "coordinates": [ -89.88117646, 30.1127105 ] } },
{ "type": "Feature", "properties": { "PRJ_ID": 23, "PRJ_NAME": "Central Flyway Migration Corridor", "ST_PROV": "KS, NE", "PRJ_ACTPRIME": "Land Acquisition \/ Protection", "2010": 0, "2011": 0, "2012": 0, "2013": 0, "2014": 1000000, "2015": 0, "2016": 0, "2017": 0, "Tot_DWH_Fund_Cont": 1000000, "longitude": -98.29090869, "latitude": 40.22967001 }, "geometry": { "type": "Point", "coordinates": [ -98.29090869, 40.22967001 ] } },
{ "type": "Feature", "properties": { "PRJ_ID": 24, "PRJ_NAME": "Central SD Wetlands and Prairies", "ST_PROV": "South Dakota", "PRJ_ACTPRIME": "Land Acquisition \/ Protection", "2010": 0, "2011": 0, "2012": 0, "2013": 0, "2014": 1000000, "2015": 0, "2016": 0, "2017": 0, "Tot_DWH_Fund_Cont": 1000000, "longitude": -99.25995472, "latitude": 45.02588735 }, "geometry": { "type": "Point", "coordinates": [ -99.25995472, 45.02588735 ] } },
{ "type": "Feature", "properties": { "PRJ_ID": 25, "PRJ_NAME": "Chase Lake Area Wetland Project - XI", "ST_PROV": "North Dakota", "PRJ_ACTPRIME": "Habitat Restoration and Enhancement", "2010": 0, "2011": 0, "2012": 0, "2013": 0, "2014": 1000000, "2015": 0, "2016": 0, "2017": 0, "Tot_DWH_Fund_Cont": 1000000, "longitude": -99.13143445, "latitude": 47.11082837 }, "geometry": { "type": "Point", "coordinates": [ -99.13143445, 47.11082837 ] } },
{ "type": "Feature", "properties": { "PRJ_ID": 26, "PRJ_NAME": "Coastal Stream and Habitat Initiative", "ST_PROV": "Mississippi", "PRJ_ACTPRIME": "Planning", "2010": 0, "2011": 0, "2012": 0, "2013": 2631000, "2014": 0, "2015": 0, "2016": 0, "2017": 0, "Tot_DWH_Fund_Cont": 2631000, "longitude": -89.06555964, "latitude": 30.42489429 }, "geometry": { "type": "Point", "coordinates": [ -89.06555964, 30.42489429 ] } },
{ "type": "Feature", "properties": { "PRJ_ID": 27, "PRJ_NAME": "Comprehensive Panhandle Coastal Bird Conservation", "ST_PROV": "Florida", "PRJ_ACTPRIME": "Species Restoration", "2010": 0, "2011": 0, "2012": 0, "2013": 3205300, "2014": 0, "2015": 0, "2016": 0, "2017": 0, "Tot_DWH_Fund_Cont": 3205300, "longitude": -85.64104734, "latitude": 30.07283232 }, "geometry": { "type": "Point", "coordinates": [ -85.64104734, 30.07283232 ] } },
{ "type": "Feature", "properties": { "PRJ_ID": 28, "PRJ_NAME": "East Timbalier Island: Engineering and Design", "ST_PROV": "Louisiana", "PRJ_ACTPRIME": "Engineering and\/or Construction", "2010": 0, "2011": 0, "2012": 0, "2013": 5589000, "2014": 0, "2015": 0, "2016": 0, "2017": 0, "Tot_DWH_Fund_Cont": 5589000, "longitude": -90.32180384, "latitude": 29.06799097 }, "geometry": { "type": "Point", "coordinates": [ -90.32180384, 29.06799097 ] } },
{ "type": "Feature", "properties": { "PRJ_ID": 29, "PRJ_NAME": "Enhanced Assessment for Recovery of Gulf of Mexico Fisheries - Phase I", "ST_PROV": "Florida", "PRJ_ACTPRIME": "Monitoring and Observations", "2010": 0, "2011": 0, "2012": 0, "2013": 3000000, "2014": 0, "2015": 0, "2016": 0, "2017": 0, "Tot_DWH_Fund_Cont": 3000000, "longitude": -84.17385038000001, "latitude": 28.10601296 }, "geometry": { "type": "Point", "coordinates": [ -84.17385038, 28.10601296 ] } },
{ "type": "Feature", "properties": { "PRJ_ID": 30, "PRJ_NAME": "Fowl River Watershed Restoration - Phase I", "ST_PROV": "Alabama", "PRJ_ACTPRIME": "Planning", "2010": 0, "2011": 0, "2012": 0, "2013": 2050000, "2014": 0, "2015": 0, "2016": 0, "2017": 0, "Tot_DWH_Fund_Cont": 2050000, "longitude": -88.18198194, "latitude": 30.49320163 }, "geometry": { "type": "Point", "coordinates": [ -88.18198194, 30.49320163 ] } },
{ "type": "Feature", "properties": { "PRJ_ID": 31, "PRJ_NAME": "Galveston Island State Park Marsh Restoration and Protection", "ST_PROV": "Texas", "PRJ_ACTPRIME": "Erosion Prevention or Control", "2010": 0, "2011": 0, "2012": 0, "2013": 2489200, "2014": 0, "2015": 0, "2016": 0, "2017": 0, "Tot_DWH_Fund_Cont": 2489200, "longitude": -94.97376391, "latitude": 29.20606182 }, "geometry": { "type": "Point", "coordinates": [ -94.97376391, 29.20606182 ] } },
{ "type": "Feature", "properties": { "PRJ_ID": 32, "PRJ_NAME": "Government Street Regional Stormwater Pond at Corrine Park Jones", "ST_PROV": "Florida", "PRJ_ACTPRIME": "Water Quality Restoration and Maintenance", "2010": 0, "2011": 0, "2012": 0, "2013": 2106500, "2014": 0, "2015": 0, "2016": 0, "2017": 0, "Tot_DWH_Fund_Cont": 2106500, "longitude": -87.22370015, "latitude": 30.40927254 }, "geometry": { "type": "Point", "coordinates": [ -87.22370015, 30.40927254 ] } },
{ "type": "Feature", "properties": { "PRJ_ID": 33, "PRJ_NAME": "Gulf Coast Migratory Waterfowl Habitat Enhancement", "ST_PROV": "Texas", "PRJ_ACTPRIME": "Habitat Restoration and Enhancement", "2010": 0, "2011": 0, "2012": 0, "2013": 1250000, "2014": 0, "2015": 0, "2016": 0, "2017": 0, "Tot_DWH_Fund_Cont": 1250000, "longitude": -96.13247713, "latitude": 29.07174592 }, "geometry": { "type": "Point", "coordinates": [ -96.13247713, 29.07174592 ] } },
{ "type": "Feature", "properties": { "PRJ_ID": 34, "PRJ_NAME": "Increase Atchafalaya Flow to Terrebonne: Planning", "ST_PROV": "Louisiana", "PRJ_ACTPRIME": "Planning", "2010": 0, "2011": 0, "2012": 0, "2013": 4604850, "2014": 0, "2015": 0, "2016": 0, "2017": 0, "Tot_DWH_Fund_Cont": 4604850, "longitude": -90.98299581000001, "latitude": 29.45463927 }, "geometry": { "type": "Point", "coordinates": [ -90.98299581, 29.45463927 ] } },
{ "type": "Feature", "properties": { "PRJ_ID": 35, "PRJ_NAME": "Iowa Mississippi River Valley", "ST_PROV": "Iowa", "PRJ_ACTPRIME": "Land Acquisition \/ Protection", "2010": 0, "2011": 0, "2012": 0, "2013": 0, "2014": 1000000, "2015": 0, "2016": 0, "2017": 0, "Tot_DWH_Fund_Cont": 1000000, "longitude": -91.07192843, "latitude": 41.46219961 }, "geometry": { "type": "Point", "coordinates": [ -91.07192843, 41.46219961 ] } },
{ "type": "Feature", "properties": { "PRJ_ID": 36, "PRJ_NAME": "Island Road Marsh Terracing", "ST_PROV": "Louisiana", "PRJ_ACTPRIME": "Habitat Restoration and Enhancement", "2010": 0, "2011": 0, "2012": 0, "2013": 0, "2014": 704000, "2015": 0, "2016": 0, "2017": 0, "Tot_DWH_Fund_Cont": 704000, "longitude": -90.46378384000001, "latitude": 29.40496519 }, "geometry": { "type": "Point", "coordinates": [ -90.46378384, 29.40496519 ] } },
{ "type": "Feature", "properties": { "PRJ_ID": 37, "PRJ_NAME": "Kansas Prairie Wetlands", "ST_PROV": "Kansas", "PRJ_ACTPRIME": "Species Restoration", "2010": 0, "2011": 0, "2012": 0, "2013": 0, "2014": 1000000, "2015": 0, "2016": 0, "2017": 0, "Tot_DWH_Fund_Cont": 1000000, "longitude": -96.74990321, "latitude": 38.1953245 }, "geometry": { "type": "Point", "coordinates": [ -96.74990321, 38.1953245 ] } },
{ "type": "Feature", "properties": { "PRJ_ID": 38, "PRJ_NAME": "Lower Mississippi River Sediment Diversions: Planning", "ST_PROV": "Louisiana", "PRJ_ACTPRIME": "Planning", "2010": 0, "2011": 0, "2012": 0, "2013": 12760200, "2014": 0, "2015": 0, "2016": 0, "2017": 0, "Tot_DWH_Fund_Cont": 12760200, "longitude": -89.68678824, "latitude": 29.48934111 }, "geometry": { "type": "Point", "coordinates": [ -89.68678824, 29.48934111 ] } },
{ "type": "Feature", "properties": { "PRJ_ID": 39, "PRJ_NAME": "Mid-Barataria Sediment Diversion: Engineering and Design", "ST_PROV": "Louisiana", "PRJ_ACTPRIME": "Engineering and\/or Construction", "2010": 0, "2011": 0, "2012": 0, "2013": 37741800, "2014": 0, "2015": 0, "2016": 0, "2017": 0, "Tot_DWH_Fund_Cont": 37741800, "longitude": -89.96249978, "latitude": 29.66201776 }, "geometry": { "type": "Point", "coordinates": [ -89.96249978, 29.66201776 ] } },
{ "type": "Feature", "properties": { "PRJ_ID": 40, "PRJ_NAME": "Mississippi Coastal Preserves Program", "ST_PROV": "Mississippi", "PRJ_ACTPRIME": "Habitat Restoration and Enhancement", "2010": 0, "2011": 0, "2012": 0, "2013": 3300000, "2014": 0, "2015": 0, "2016": 0, "2017": 0, "Tot_DWH_Fund_Cont": 3300000, "longitude": -88.84132669, "latitude": 30.37493826 }, "geometry": { "type": "Point", "coordinates": [ -88.84132669, 30.37493826 ] } },
{ "type": "Feature", "properties": { "PRJ_ID": 41, "PRJ_NAME": "Mississippi Coastal Restoration Plan", "ST_PROV": "Mississippi", "PRJ_ACTPRIME": "Planning", "2010": 0, "2011": 0, "2012": 0, "2013": 0, "2014": 3598940, "2015": 0, "2016": 0, "2017": 0, "Tot_DWH_Fund_Cont": 3598940, "longitude": -88.92590564, "latitude": 30.21601849 }, "geometry": { "type": "Point", "coordinates": [ -88.92590564, 30.21601849 ] } },
{ "type": "Feature", "properties": { "PRJ_ID": 42, "PRJ_NAME": "Mississippi Wetlands Conservation Initiative I", "ST_PROV": "Mississippi", "PRJ_ACTPRIME": "Land Acquisition \/ Protection", "2010": 0, "2011": 0, "2012": 0, "2013": 876479, "2014": 0, "2015": 0, "2016": 0, "2017": 0, "Tot_DWH_Fund_Cont": 876479, "longitude": -91.00267551, "latitude": 32.86373911 }, "geometry": { "type": "Point", "coordinates": [ -91.00267551, 32.86373911 ] } },
{ "type": "Feature", "properties": { "PRJ_ID": 43, "PRJ_NAME": "Mississippi Wetlands Conservation Initiative II", "ST_PROV": "Mississippi", "PRJ_ACTPRIME": "Land Acquisition \/ Protection", "2010": 0, "2011": 0, "2012": 0, "2013": 0, "2014": 999830, "2015": 0, "2016": 0, "2017": 0, "Tot_DWH_Fund_Cont": 999830, "longitude": -90.54819178, "latitude": 32.7122361 }, "geometry": { "type": "Point", "coordinates": [ -90.54819178, 32.7122361 ] } },
{ "type": "Feature", "properties": { "PRJ_ID": 44, "PRJ_NAME": "Missouri Coteau Habitat Conservation XIII", "ST_PROV": "North Dakota", "PRJ_ACTPRIME": "Land Acquisition \/ Protection", "2010": 0, "2011": 0, "2012": 0, "2013": 0, "2014": 2000000, "2015": 0, "2016": 0, "2017": 0, "Tot_DWH_Fund_Cont": 2000000, "longitude": -101.1904406, "latitude": 47.69940465 }, "geometry": { "type": "Point", "coordinates": [ -101.1904406, 47.69940465 ] } },
{ "type": "Feature", "properties": { "PRJ_ID": 45, "PRJ_NAME": "Montana Hi-Line Prairie Wetland V", "ST_PROV": "Montana", "PRJ_ACTPRIME": "Habitat Restoration and Enhancement", "2010": 0, "2011": 0, "2012": 0, "2013": 0, "2014": 1000000, "2015": 0, "2016": 0, "2017": 0, "Tot_DWH_Fund_Cont": 1000000, "longitude": -108.1168962, "latitude": 48.41741979 }, "geometry": { "type": "Point", "coordinates": [ -108.1168962, 48.41741979 ] } },
{ "type": "Feature", "properties": { "PRJ_ID": 46, "PRJ_NAME": "Oyster Reef Restoration in East Bay", "ST_PROV": "Texas", "PRJ_ACTPRIME": "Species Restoration", "2010": 0, "2011": 0, "2012": 0, "2013": 840000, "2014": 0, "2015": 0, "2016": 0, "2017": 0, "Tot_DWH_Fund_Cont": 840000, "longitude": -94.64775082, "latitude": 29.50989291 }, "geometry": { "type": "Point", "coordinates": [ -94.64775082, 29.50989291 ] } },
{ "type": "Feature", "properties": { "PRJ_ID": 47, "PRJ_NAME": "Restoration and Enhancement of Oyster Reefs in Alabama", "ST_PROV": "Alabama", "PRJ_ACTPRIME": "Species Restoration", "2010": 0, "2011": 0, "2012": 0, "2013": 3750000, "2014": 0, "2015": 0, "2016": 0, "2017": 0, "Tot_DWH_Fund_Cont": 3750000, "longitude": -87.99002283, "latitude": 30.33521756 }, "geometry": { "type": "Point", "coordinates": [ -87.99002283, 30.33521756 ] } },
{ "type": "Feature", "properties": { "PRJ_ID": 48, "PRJ_NAME": "Riverine Sand Mining \/ Scofield Island Restoration", "ST_PROV": "Louisiana", "PRJ_ACTPRIME": "Habitat Restoration and Enhancement", "2010": 0, "2011": 0, "2012": 0, "2013": 60800000, "2014": 0, "2015": 0, "2016": 0, "2017": 0, "Tot_DWH_Fund_Cont": 60800000, "longitude": -89.54531665, "latitude": 29.24013304 }, "geometry": { "type": "Point", "coordinates": [ -89.54531665, 29.24013304 ] } },
{ "type": "Feature", "properties": { "PRJ_ID": 49, "PRJ_NAME": "Shell Island East", "ST_PROV": "Louisiana", "PRJ_ACTPRIME": "Habitat Restoration and Enhancement", "2010": 0, "2011": 0, "2012": 0, "2013": 47600000, "2014": 0, "2015": 0, "2016": 0, "2017": 0, "Tot_DWH_Fund_Cont": 47600000, "longitude": -89.6165998, "latitude": 29.27224888 }, "geometry": { "type": "Point", "coordinates": [ -89.6165998, 29.27224888 ] } },
{ "type": "Feature", "properties": { "PRJ_ID": 50, "PRJ_NAME": "Texas Gulf Coast XI", "ST_PROV": "Texas", "PRJ_ACTPRIME": "Habitat Restoration and Enhancement", "2010": 0, "2011": 0, "2012": 0, "2013": 992051, "2014": 0, "2015": 0, "2016": 0, "2017": 0, "Tot_DWH_Fund_Cont": 992051, "longitude": -97.13973292, "latitude": 28.49202431 }, "geometry": { "type": "Point", "coordinates": [ -97.13973292, 28.49202431 ] } },
{ "type": "Feature", "properties": { "PRJ_ID": 51, "PRJ_NAME": "Caminada Beach and Dune Restoration Increment II: Construction", "ST_PROV": "Louisiana", "PRJ_ACTPRIME": "Habitat Restoration and Enhancement", "2010": 0, "2011": 0, "2012": 0, "2013": 0, "2014": 144550000, "2015": 0, "2016": 0, "2017": 0, "Tot_DWH_Fund_Cont": 144550000, "longitude": -90.18158812, "latitude": 29.1067977 }, "geometry": { "type": "Point", "coordinates": [ -90.18158812, 29.1067977 ] } },
{ "type": "Feature", "properties": { "PRJ_ID": 52, "PRJ_NAME": "Escribano Point Coastal Habitat Acquistion and Restoration - Phase I", "ST_PROV": "Florida", "PRJ_ACTPRIME": "Land Acquisition \/ Protection", "2010": 0, "2011": 0, "2012": 0, "2013": 1731000, "2014": 0, "2015": 0, "2016": 0, "2017": 0, "Tot_DWH_Fund_Cont": 1731000, "longitude": -86.99301771, "latitude": 30.49211063 }, "geometry": { "type": "Point", "coordinates": [ -86.99301771, 30.49211063 ] } },
{ "type": "Feature", "properties": { "PRJ_ID": 53, "PRJ_NAME": "West Galveston Bay Conservation Corridor Habitat Preservation", "ST_PROV": "Texas", "PRJ_ACTPRIME": "Land Acquisition \/ Protection", "2010": 0, "2011": 0, "2012": 0, "2013": 4075000, "2014": 0, "2015": 0, "2016": 0, "2017": 0, "Tot_DWH_Fund_Cont": 4075000, "longitude": -95.02776901, "latitude": 29.29359535 }, "geometry": { "type": "Point", "coordinates": [ -95.02776901, 29.29359535 ] } },
{ "type": "Feature", "properties": { "PRJ_ID": 54, "PRJ_NAME": "Biomarker Prospecting: Detection of Impacts of DHOS-related Hydrocarbon & Dispersant Discharge in North-Central Gulf of Mexico Estuaries Using Gulf Killifish, Fundulus Grandis, As an Aquatic Vertebrate Sentinel", "ST_PROV": "Alabama", "PRJ_ACTPRIME": "Environmental Effects Research", "2010": 4595, "2011": 0, "2012": 0, "2013": 0, "2014": 0, "2015": 0, "2016": 0, "2017": 0, "Tot_DWH_Fund_Cont": 4595, "longitude": -85.4924014, "latitude": 32.59553597 }, "geometry": { "type": "Point", "coordinates": [ -85.4924014, 32.59553597 ] } },
{ "type": "Feature", "properties": { "PRJ_ID": 55, "PRJ_NAME": "Studies of Microbial Communities Affected by the Deepwater Horizon Spill", "ST_PROV": "AL, FL", "PRJ_ACTPRIME": "Environmental Effects Research", "2010": 0, "2011": 15000, "2012": 0, "2013": 0, "2014": 0, "2015": 0, "2016": 0, "2017": 0, "Tot_DWH_Fund_Cont": 15000, "longitude": -86.29135921, "latitude": 32.36399671 }, "geometry": { "type": "Point", "coordinates": [ -86.29135921, 32.36399671 ] } },
{ "type": "Feature", "properties": { "PRJ_ID": 56, "PRJ_NAME": "Biotransformation of BP Oil Spill Using Hydrocarbon-Utilizing Marine Microbes", "ST_PROV": "AL, OH", "PRJ_ACTPRIME": "Chemical Aspects Research", "2010": 0, "2011": 15000, "2012": 0, "2013": 0, "2014": 0, "2015": 0, "2016": 0, "2017": 0, "Tot_DWH_Fund_Cont": 15000, "longitude": -86.29135921, "latitude": 32.36399671 }, "geometry": { "type": "Point", "coordinates": [ -86.29135921, 32.36399671 ] } },
{ "type": "Feature", "properties": { "PRJ_ID": 57, "PRJ_NAME": "Measuring Direct and Indirect Impacts of the Deepwater Horizon Oil Spill on Coastal Low Salinity Fauna", "ST_PROV": "Alabama", "PRJ_ACTPRIME": "Environmental Effects Research", "2010": 0, "2011": 86250, "2012": 0, "2013": 0, "2014": 0, "2015": 0, "2016": 0, "2017": 0, "Tot_DWH_Fund_Cont": 86250, "longitude": -85.4924014, "latitude": 32.59553597 }, "geometry": { "type": "Point", "coordinates": [ -85.4924014, 32.59553597 ] } },
{ "type": "Feature", "properties": { "PRJ_ID": 58, "PRJ_NAME": "Recruitment Patterns of Reef Fishes and the Recent Gulf Oil Spill", "ST_PROV": "Alabama", "PRJ_ACTPRIME": "Environmental Effects Research", "2010": 0, "2011": 34500, "2012": 0, "2013": 0, "2014": 0, "2015": 0, "2016": 0, "2017": 0, "Tot_DWH_Fund_Cont": 34500, "longitude": -85.4924014, "latitude": 32.59553597 }, "geometry": { "type": "Point", "coordinates": [ -85.4924014, 32.59553597 ] } },
{ "type": "Feature", "properties": { "PRJ_ID": 59, "PRJ_NAME": "Analysis of hydrocarbons (PAHS) in sediment samples", "ST_PROV": "Alabama", "PRJ_ACTPRIME": "Physical Aspects Research", "2010": 0, "2011": 46575, "2012": 0, "2013": 0, "2014": 0, "2015": 0, "2016": 0, "2017": 0, "Tot_DWH_Fund_Cont": 46575, "longitude": -85.4924014, "latitude": 32.59553597 }, "geometry": { "type": "Point", "coordinates": [ -85.4924014, 32.59553597 ] } },
{ "type": "Feature", "properties": { "PRJ_ID": 60, "PRJ_NAME": "Physical Model Investigation on the Mixing of Oil-Dispersed Substances in Mobile Bay Navigation Canal", "ST_PROV": "Alabama", "PRJ_ACTPRIME": "Physical Aspects Research", "2010": 0, "2011": 69000, "2012": 0, "2013": 0, "2014": 0, "2015": 0, "2016": 0, "2017": 0, "Tot_DWH_Fund_Cont": 69000, "longitude": -85.4924014, "latitude": 32.59553597 }, "geometry": { "type": "Point", "coordinates": [ -85.4924014, 32.59553597 ] } },
{ "type": "Feature", "properties": { "PRJ_ID": 61, "PRJ_NAME": "The Distribution of Residual Oil in Alabama Coastal Marshes and Its Impact of Marsh Vegetation", "ST_PROV": "Alabama", "PRJ_ACTPRIME": "Physical Aspects Research", "2010": 0, "2011": 74750, "2012": 0, "2013": 0, "2014": 0, "2015": 0, "2016": 0, "2017": 0, "Tot_DWH_Fund_Cont": 74750, "longitude": -85.4924014, "latitude": 32.59553597 }, "geometry": { "type": "Point", "coordinates": [ -85.4924014, 32.59553597 ] } },
{ "type": "Feature", "properties": { "PRJ_ID": 62, "PRJ_NAME": "Assessment of Polycyclic Aromatic Hydrocarbon Degradation Using Mineralization Assay and Functional Gene Analysis", "ST_PROV": "Alabama", "PRJ_ACTPRIME": "Chemical Aspects Research", "2010": 0, "2011": 14877, "2012": 0, "2013": 0, "2014": 0, "2015": 0, "2016": 0, "2017": 0, "Tot_DWH_Fund_Cont": 14877, "longitude": -85.4924014, "latitude": 32.59553597 }, "geometry": { "type": "Point", "coordinates": [ -85.4924014, 32.59553597 ] } },
{ "type": "Feature", "properties": { "PRJ_ID": 63, "PRJ_NAME": "Photochemical degradation and ozonation of persistent BP oil compounds in the spill-affected Alabama coast water and sediment - Penetration, Accumulation and Degradation of BP DWH Oil in Florida Sandy Beaches", "ST_PROV": "Alabama", "PRJ_ACTPRIME": "Chemical Aspects Research", "2010": 0, "2011": 177975, "2012": 0, "2013": 0, "2014": 0, "2015": 0, "2016": 0, "2017": 0, "Tot_DWH_Fund_Cont": 177975, "longitude": -85.4924014, "latitude": 32.59553597 }, "geometry": { "type": "Point", "coordinates": [ -85.4924014, 32.59553597 ] } },
{ "type": "Feature", "properties": { "PRJ_ID": 64, "PRJ_NAME": "Wetland and Shoreline Recovery", "ST_PROV": "Alabama", "PRJ_ACTPRIME": "Environmental Effects Research", "2010": 0, "2011": 102376, "2012": 0, "2013": 0, "2014": 0, "2015": 0, "2016": 0, "2017": 0, "Tot_DWH_Fund_Cont": 102376, "longitude": -85.4924014, "latitude": 32.59553597 }, "geometry": { "type": "Point", "coordinates": [ -85.4924014, 32.59553597 ] } },
{ "type": "Feature", "properties": { "PRJ_ID": 65, "PRJ_NAME": "Emergency Funds to Continue Monitoring DHOS Effects within a Heavily-Oiled Gulf of Mexico Salt Marsh- Barataria Bay, LA", "ST_PROV": "AL, TN, VA", "PRJ_ACTPRIME": "Physical Aspects Research", "2010": 0, "2011": 132000, "2012": 0, "2013": 0, "2014": 0, "2015": 0, "2016": 0, "2017": 0, "Tot_DWH_Fund_Cont": 132000, "longitude": -85.4924014, "latitude": 32.59553597 }, "geometry": { "type": "Point", "coordinates": [ -85.4924014, 32.59553597 ] } },
{ "type": "Feature", "properties": { "PRJ_ID": 66, "PRJ_NAME": "Gene Quantification to Elucidate Intrinsic Bioremediation Potential and Efficacy in the Oil Impacted Gulf Sediment", "ST_PROV": "Alabama", "PRJ_ACTPRIME": "Environmental Effects Research", "2010": 0, "2011": 87400, "2012": 0, "2013": 0, "2014": 0, "2015": 0, "2016": 0, "2017": 0, "Tot_DWH_Fund_Cont": 87400, "longitude": -85.4924014, "latitude": 32.59553597 }, "geometry": { "type": "Point", "coordinates": [ -85.4924014, 32.59553597 ] } },
{ "type": "Feature", "properties": { "PRJ_ID": 67, "PRJ_NAME": "Impacts of the Deepwater Horizon Oil Releases on the Functional Integrity of Salt Marshes and Seagrass Meadows and Associated Fauna", "ST_PROV": "AL, FL", "PRJ_ACTPRIME": "Environmental Effects Research", "2010": 0, "2011": 74750, "2012": 0, "2013": 0, "2014": 0, "2015": 0, "2016": 0, "2017": 0, "Tot_DWH_Fund_Cont": 74750, "longitude": -88.07877409, "latitude": 30.2503634 }, "geometry": { "type": "Point", "coordinates": [ -88.07877409, 30.2503634 ] } },
{ "type": "Feature", "properties": { "PRJ_ID": 68, "PRJ_NAME": "Investigation of the Three Dimensional Eulerian Flow and Resulting Lagrangian Transport Pathways on the Alabama Shelf  pathways on the Alabama shelf", "ST_PROV": "AL, CO, FL", "PRJ_ACTPRIME": "Physical Aspects Research", "2010": 0, "2011": 41400, "2012": 0, "2013": 0, "2014": 0, "2015": 0, "2016": 0, "2017": 0, "Tot_DWH_Fund_Cont": 41400, "longitude": -88.07877409, "latitude": 30.2503634 }, "geometry": { "type": "Point", "coordinates": [ -88.07877409, 30.2503634 ] } },
{ "type": "Feature", "properties": { "PRJ_ID": 69, "PRJ_NAME": "Modeling of Circulation and Physical Transport for the Alabama Coastal Waters to Assess Transport and Distribution of Oil-Derived Substances", "ST_PROV": "AL, LA", "PRJ_ACTPRIME": "Physical Aspects Research", "2010": 0, "2011": 53055, "2012": 0, "2013": 0, "2014": 0, "2015": 0, "2016": 0, "2017": 0, "Tot_DWH_Fund_Cont": 53055, "longitude": -88.07877409, "latitude": 30.2503634 }, "geometry": { "type": "Point", "coordinates": [ -88.07877409, 30.2503634 ] } },
{ "type": "Feature", "properties": { "PRJ_ID": 70, "PRJ_NAME": "Impacts of the Deep Horizon Accident on Food Web Structure in the North Central Gulf of Mexico", "ST_PROV": "AL, FL", "PRJ_ACTPRIME": "Chemical Aspects Research", "2010": 0, "2011": 206389, "2012": 0, "2013": 0, "2014": 0, "2015": 0, "2016": 0, "2017": 0, "Tot_DWH_Fund_Cont": 206389, "longitude": -88.07877409, "latitude": 30.2503634 }, "geometry": { "type": "Point", "coordinates": [ -88.07877409, 30.2503634 ] } },
{ "type": "Feature", "properties": { "PRJ_ID": 71, "PRJ_NAME": "Recovery: Sentinel Macrofauna", "ST_PROV": "AL, NM", "PRJ_ACTPRIME": "Environmental Effects Research", "2010": 0, "2011": 272700, "2012": 0, "2013": 0, "2014": 0, "2015": 0, "2016": 0, "2017": 0, "Tot_DWH_Fund_Cont": 272700, "longitude": -88.07877409, "latitude": 30.2503634 }, "geometry": { "type": "Point", "coordinates": [ -88.07877409, 30.2503634 ] } },
{ "type": "Feature", "properties": { "PRJ_ID": 72, "PRJ_NAME": "Acute Effects of Oil on Northern Gulf of Mexico Reefs and Reef Communities", "ST_PROV": "AL, DC, FL", "PRJ_ACTPRIME": "Environmental Effects Research", "2010": 236929, "2011": 0, "2012": 0, "2013": 0, "2014": 0, "2015": 0, "2016": 0, "2017": 0, "Tot_DWH_Fund_Cont": 236929, "longitude": -88.07877409, "latitude": 30.2503634 }, "geometry": { "type": "Point", "coordinates": [ -88.07877409, 30.2503634 ] } },
{ "type": "Feature", "properties": { "PRJ_ID": 73, "PRJ_NAME": "Food Web Impacts of Deepwater Horizon Oil Spill on Coastal Alabama Waterfowl", "ST_PROV": "Alabama", "PRJ_ACTPRIME": "Environmental Effects Research", "2010": 0, "2011": 199223, "2012": 0, "2013": 0, "2014": 0, "2015": 0, "2016": 0, "2017": 0, "Tot_DWH_Fund_Cont": 199223, "longitude": -88.07877409, "latitude": 30.2503634 }, "geometry": { "type": "Point", "coordinates": [ -88.07877409, 30.2503634 ] } },
{ "type": "Feature", "properties": { "PRJ_ID": 74, "PRJ_NAME": "Impacts of the Deep Horizon Oil Spill on Ecosystem Structure and Function in Alabama's Marine Waters", "ST_PROV": "AL, FL, MS", "PRJ_ACTPRIME": "Physical Aspects Research", "2010": 83481, "2011": 0, "2012": 0, "2013": 0, "2014": 0, "2015": 0, "2016": 0, "2017": 0, "Tot_DWH_Fund_Cont": 83481, "longitude": -88.07877409, "latitude": 30.2503634 }, "geometry": { "type": "Point", "coordinates": [ -88.07877409, 30.2503634 ] } },
{ "type": "Feature", "properties": { "PRJ_ID": 75, "PRJ_NAME": "Recovery: Plankton", "ST_PROV": "AL, FL, MS, ESP - IB", "PRJ_ACTPRIME": "Environmental Effects Research", "2010": 0, "2011": 404897, "2012": 0, "2013": 0, "2014": 0, "2015": 0, "2016": 0, "2017": 0, "Tot_DWH_Fund_Cont": 404897, "longitude": -88.07877409, "latitude": 30.2503634 }, "geometry": { "type": "Point", "coordinates": [ -88.07877409, 30.2503634 ] } },
{ "type": "Feature", "properties": { "PRJ_ID": 76, "PRJ_NAME": "Does the 'Priming Effect' Caused by the DWH Oil-spill Result in Increased Microbial and Zooplankton Consumption of Labile and Refractory Dissolved Organic Carbon? Phase II", "ST_PROV": "AL, GA, MS, CAN - QC, ESP - IB", "PRJ_ACTPRIME": "Chemical Aspects Research", "2010": 0, "2011": 274783, "2012": 0, "2013": 0, "2014": 0, "2015": 0, "2016": 0, "2017": 0, "Tot_DWH_Fund_Cont": 274783, "longitude": -88.07877409, "latitude": 30.2503634 }, "geometry": { "type": "Point", "coordinates": [ -88.07877409, 30.2503634 ] } },
{ "type": "Feature", "properties": { "PRJ_ID": 77, "PRJ_NAME": "Potential Impacts of the DWH Oil Spill on Fishery Resources: Will There be Reduced Recruitment of Economically Important Shrimp, Crabs, and Finfish in Seagrass and Marsh Nursery Habitats of the North Central Gulf of Mexico?", "ST_PROV": "AL, FL", "PRJ_ACTPRIME": "Environmental Effects Research", "2010": 0, "2011": 193775, "2012": 0, "2013": 0, "2014": 0, "2015": 0, "2016": 0, "2017": 0, "Tot_DWH_Fund_Cont": 193775, "longitude": -88.07877409, "latitude": 30.2503634 }, "geometry": { "type": "Point", "coordinates": [ -88.07877409, 30.2503634 ] } },
{ "type": "Feature", "properties": { "PRJ_ID": 78, "PRJ_NAME": "NGI\/BP Gulf Research Initiative Phase I and II Education and Outreach Support", "ST_PROV": "Alabama", "PRJ_ACTPRIME": "Physical Aspects Research", "2010": 0, "2011": 65615, "2012": 0, "2013": 0, "2014": 0, "2015": 0, "2016": 0, "2017": 0, "Tot_DWH_Fund_Cont": 65615, "longitude": -88.07877409, "latitude": 30.2503634 }, "geometry": { "type": "Point", "coordinates": [ -88.07877409, 30.2503634 ] } },
{ "type": "Feature", "properties": { "PRJ_ID": 79, "PRJ_NAME": "Alabama Center for Ecological Resilience (ACER)", "ST_PROV": "AL, FL, LA, MA, NJ, NY", "PRJ_ACTPRIME": "Environmental Effects Research", "2010": 0, "2011": 0, "2012": 0, "2013": 0, "2014": 0, "2015": 6497050, "2016": 0, "2017": 0, "Tot_DWH_Fund_Cont": 6497050, "longitude": -88.07877409, "latitude": 30.2503634 }, "geometry": { "type": "Point", "coordinates": [ -88.07877409, 30.2503634 ] } },
{ "type": "Feature", "properties": { "PRJ_ID": 80, "PRJ_NAME": "Assessing the Impact of the Deepwater Horizon Oil Spill on Coastal Waters of the Florida Panhandle: Water Sediments and Fish", "ST_PROV": "Florida", "PRJ_ACTPRIME": "Physical Aspects Research", "2010": 193518, "2011": 0, "2012": 0, "2013": 0, "2014": 0, "2015": 0, "2016": 0, "2017": 0, "Tot_DWH_Fund_Cont": 193518, "longitude": -84.28712376, "latitude": 30.4218943 }, "geometry": { "type": "Point", "coordinates": [ -84.28712376, 30.4218943 ] } },
{ "type": "Feature", "properties": { "PRJ_ID": 81, "PRJ_NAME": "Molecular Diagnostics of Coral Exposed to Oil and Dispersants: A Holobiont Approach to Investigate Potential Effects on the Host Corals, Symbiotic Algae, and Mucus Associated Microbial Communities", "ST_PROV": "FL, GA", "PRJ_ACTPRIME": "Environmental Effects Research", "2010": 285346, "2011": 0, "2012": 0, "2013": 0, "2014": 0, "2015": 0, "2016": 0, "2017": 0, "Tot_DWH_Fund_Cont": 285346, "longitude": -80.10177511000001, "latitude": 26.37380627 }, "geometry": { "type": "Point", "coordinates": [ -80.10177511, 26.37380627 ] } },
{ "type": "Feature", "properties": { "PRJ_ID": 82, "PRJ_NAME": "The Impact of Crude Oil and the Dispersant Corexit on Three Key Gulf of Mexico Invertebrate Species", "ST_PROV": "FL, GA", "PRJ_ACTPRIME": "Environmental Effects Research", "2010": 104374, "2011": 0, "2012": 0, "2013": 0, "2014": 0, "2015": 0, "2016": 0, "2017": 0, "Tot_DWH_Fund_Cont": 104374, "longitude": -80.10177511000001, "latitude": 26.37380627 }, "geometry": { "type": "Point", "coordinates": [ -80.10177511, 26.37380627 ] } },
{ "type": "Feature", "properties": { "PRJ_ID": 83, "PRJ_NAME": "The Deepwater Horizon Oil Spill: Assessing Impacts on a Critical Habitat, Oyster Reefs and Associated Species in Florida Gulf Estuaries", "ST_PROV": "FL, SC", "PRJ_ACTPRIME": "Environmental Effects Research", "2010": 337631, "2011": 0, "2012": 0, "2013": 0, "2014": 0, "2015": 0, "2016": 0, "2017": 0, "Tot_DWH_Fund_Cont": 337631, "longitude": -80.10177511000001, "latitude": 26.37380627 }, "geometry": { "type": "Point", "coordinates": [ -80.10177511, 26.37380627 ] } },
{ "type": "Feature", "properties": { "PRJ_ID": 84, "PRJ_NAME": "Impacts from MC252 Oil on Ecologically and Commercially Important Plankton of the Gulf of Mexico", "ST_PROV": "FL, FRA - AN", "PRJ_ACTPRIME": "Environmental Effects Research", "2010": 322531, "2011": 0, "2012": 0, "2013": 0, "2014": 0, "2015": 0, "2016": 0, "2017": 0, "Tot_DWH_Fund_Cont": 322531, "longitude": -81.77170449000001, "latitude": 26.46385351 }, "geometry": { "type": "Point", "coordinates": [ -81.77170449, 26.46385351 ] } },
{ "type": "Feature", "properties": { "PRJ_ID": 85, "PRJ_NAME": "Effects of a Major Oil Spill on Nektonic Assemblages of Salt Marshes and Adjacent SAV Habitats in Florida and Alabama", "ST_PROV": "AL, FL", "PRJ_ACTPRIME": "Environmental Effects Research", "2010": 193561, "2011": 0, "2012": 0, "2013": 0, "2014": 0, "2015": 0, "2016": 0, "2017": 0, "Tot_DWH_Fund_Cont": 193561, "longitude": -80.62317949, "latitude": 28.06686844 }, "geometry": { "type": "Point", "coordinates": [ -80.62317949, 28.06686844 ] } },
{ "type": "Feature", "properties": { "PRJ_ID": 86, "PRJ_NAME": "Assessing Impacts of Oil Exposure to Deep Sea Ecosystems of the Gulf of Mexico Using Sharks and Scavengers As Integrative Models", "ST_PROV": "FL, MA, VA", "PRJ_ACTPRIME": "Environmental Effects Research", "2010": 281197, "2011": 0, "2012": 0, "2013": 0, "2014": 0, "2015": 0, "2016": 0, "2017": 0, "Tot_DWH_Fund_Cont": 281197, "longitude": -80.36649837, "latitude": 25.77022329 }, "geometry": { "type": "Point", "coordinates": [ -80.36649837, 25.77022329 ] } },
{ "type": "Feature", "properties": { "PRJ_ID": 87, "PRJ_NAME": "Tracing the Intrusion of the GOM-2010 Oil Spill on Coastal and Marine Food Webs Radiocarbon and Stable Isotope", "ST_PROV": "Florida", "PRJ_ACTPRIME": "Environmental Effects Research", "2010": 266250, "2011": 0, "2012": 0, "2013": 0, "2014": 0, "2015": 0, "2016": 0, "2017": 0, "Tot_DWH_Fund_Cont": 266250, "longitude": -84.30180269, "latitude": 30.44443235 }, "geometry": { "type": "Point", "coordinates": [ -84.30180269, 30.44443235 ] } },
{ "type": "Feature", "properties": { "PRJ_ID": 88, "PRJ_NAME": "Assessment of Deepwater Fish Assemblages Associated with Desoto Canyons and Continental Slope Waters in the Eastern GOM", "ST_PROV": "FL, MA, VA", "PRJ_ACTPRIME": "Environmental Effects Research", "2010": 97225, "2011": 0, "2012": 0, "2013": 0, "2014": 0, "2015": 0, "2016": 0, "2017": 0, "Tot_DWH_Fund_Cont": 97225, "longitude": -84.30180269, "latitude": 30.44443235 }, "geometry": { "type": "Point", "coordinates": [ -84.30180269, 30.44443235 ] } },
{ "type": "Feature", "properties": { "PRJ_ID": 89, "PRJ_NAME": "Penetration, Accumulation and Degradation of BP DWH Oil in Florida Sandy Beaches", "ST_PROV": "FL, GA, IL", "PRJ_ACTPRIME": "Physical Aspects Research", "2010": 232556, "2011": 0, "2012": 0, "2013": 0, "2014": 0, "2015": 0, "2016": 0, "2017": 0, "Tot_DWH_Fund_Cont": 232556, "longitude": -84.30180269, "latitude": 30.44443235 }, "geometry": { "type": "Point", "coordinates": [ -84.30180269, 30.44443235 ] } },
{ "type": "Feature", "properties": { "PRJ_ID": 90, "PRJ_NAME": "Coast Watch: Remote Sensing and Verification Sampling of Oil Spill Impact on Florida Coast", "ST_PROV": "Florida", "PRJ_ACTPRIME": "Physical Aspects Research", "2010": 258157, "2011": 0, "2012": 0, "2013": 0, "2014": 0, "2015": 0, "2016": 0, "2017": 0, "Tot_DWH_Fund_Cont": 258157, "longitude": -84.30180269, "latitude": 30.44443235 }, "geometry": { "type": "Point", "coordinates": [ -84.30180269, 30.44443235 ] } },
{ "type": "Feature", "properties": { "PRJ_ID": 91, "PRJ_NAME": "Effects of the BP Oil Spill on Diatoms, Nannoplankton, and Related Protists at the Base of the Food Chain in the NE Gulf of Mexico of the food chain in the NE Gulf of Mexico", "ST_PROV": "FL, GA", "PRJ_ACTPRIME": "Environmental Effects Research", "2010": 177853, "2011": 0, "2012": 0, "2013": 0, "2014": 0, "2015": 0, "2016": 0, "2017": 0, "Tot_DWH_Fund_Cont": 177853, "longitude": -84.30180269, "latitude": 30.44443235 }, "geometry": { "type": "Point", "coordinates": [ -84.30180269, 30.44443235 ] } },
{ "type": "Feature", "properties": { "PRJ_ID": 92, "PRJ_NAME": "Deepwater Horizon Oil Deposition in Gulf of Mexico Beaches Phase 2: Recovery of the Beach Sedimentary Environment", "ST_PROV": "FL, GA", "PRJ_ACTPRIME": "Physical Aspects Research", "2010": 0, "2011": 122353, "2012": 0, "2013": 0, "2014": 0, "2015": 0, "2016": 0, "2017": 0, "Tot_DWH_Fund_Cont": 122353, "longitude": -84.30180269, "latitude": 30.44443235 }, "geometry": { "type": "Point", "coordinates": [ -84.30180269, 30.44443235 ] } },
{ "type": "Feature", "properties": { "PRJ_ID": 93, "PRJ_NAME": "Uncertainty Quantification of Oil Spill Transport", "ST_PROV": "FL, FRA - AN", "PRJ_ACTPRIME": "Physical Aspects Research", "2010": 0, "2011": 65000, "2012": 0, "2013": 0, "2014": 0, "2015": 0, "2016": 0, "2017": 0, "Tot_DWH_Fund_Cont": 65000, "longitude": -84.30180269, "latitude": 30.44443235 }, "geometry": { "type": "Point", "coordinates": [ -84.30180269, 30.44443235 ] } },
{ "type": "Feature", "properties": { "PRJ_ID": 94, "PRJ_NAME": "Impact of Crude Oil on Coastal and Ocean Environments of the West Florida Shelf and Big Bend Region from the Shoreline to the Continental Shelf Edge: Radiocarbon and Stable Isotope Tracing", "ST_PROV": "CT, FL", "PRJ_ACTPRIME": "Chemical Aspects Research", "2010": 0, "2011": 113801, "2012": 0, "2013": 0, "2014": 0, "2015": 0, "2016": 0, "2017": 0, "Tot_DWH_Fund_Cont": 113801, "longitude": -84.30180269, "latitude": 30.44443235 }, "geometry": { "type": "Point", "coordinates": [ -84.30180269, 30.44443235 ] } },
{ "type": "Feature", "properties": { "PRJ_ID": 95, "PRJ_NAME": "Automated Mapping of Surface Oil Spill: Surface Physics and Remote Sensing Associated with Movement and Identification of a Slick", "ST_PROV": "FL, UT", "PRJ_ACTPRIME": "Physical Aspects Research", "2010": 0, "2011": 349314, "2012": 0, "2013": 0, "2014": 0, "2015": 0, "2016": 0, "2017": 0, "Tot_DWH_Fund_Cont": 349314, "longitude": -84.30180269, "latitude": 30.44443235 }, "geometry": { "type": "Point", "coordinates": [ -84.30180269, 30.44443235 ] } },
{ "type": "Feature", "properties": { "PRJ_ID": 96, "PRJ_NAME": "Impact of Crude Oil on Coastal and Ocean Environments of the West Florida Shelf and Big Bend Region from the Shoreline to the Continental Shelf Edge", "ST_PROV": "FL, GA, MA", "PRJ_ACTPRIME": "Chemical Aspects Research", "2010": 497188, "2011": 0, "2012": 0, "2013": 0, "2014": 0, "2015": 0, "2016": 0, "2017": 0, "Tot_DWH_Fund_Cont": 497188, "longitude": -84.30180269, "latitude": 30.44443235 }, "geometry": { "type": "Point", "coordinates": [ -84.30180269, 30.44443235 ] } },
{ "type": "Feature", "properties": { "PRJ_ID": 97, "PRJ_NAME": "Deepsea to Coast Connectivity in the Eastern Gulf of Mexico (DEEP-C)", "ST_PROV": "AL, FL, GA, MA, MS, VA, CAN - AB, NOR", "PRJ_ACTPRIME": "Physical Aspects Research", "2010": 0, "2011": 20245000, "2012": 0, "2013": 0, "2014": 0, "2015": 0, "2016": 0, "2017": 0, "Tot_DWH_Fund_Cont": 20245000, "longitude": -84.30180269, "latitude": 30.44443235 }, "geometry": { "type": "Point", "coordinates": [ -84.30180269, 30.44443235 ] } },
{ "type": "Feature", "properties": { "PRJ_ID": 98, "PRJ_NAME": "NGI BP Earth System Modeling (Phase II)", "ST_PROV": "Florida", "PRJ_ACTPRIME": "Physical Aspects Research", "2010": 0, "2011": 172592, "2012": 0, "2013": 0, "2014": 0, "2015": 0, "2016": 0, "2017": 0, "Tot_DWH_Fund_Cont": 172592, "longitude": -84.30180269, "latitude": 30.44443235 }, "geometry": { "type": "Point", "coordinates": [ -84.30180269, 30.44443235 ] } },
{ "type": "Feature", "properties": { "PRJ_ID": 99, "PRJ_NAME": "Data Sampling and Modeling of Contaminant Dispersant", "ST_PROV": "FL, MS", "PRJ_ACTPRIME": "Chemical Aspects Research", "2010": 989000, "2011": 0, "2012": 0, "2013": 0, "2014": 0, "2015": 0, "2016": 0, "2017": 0, "Tot_DWH_Fund_Cont": 989000, "longitude": -90.20911646, "latitude": 32.29614965 }, "geometry": { "type": "Point", "coordinates": [ -90.20911646, 32.29614965 ] } },
{ "type": "Feature", "properties": { "PRJ_ID": 100, "PRJ_NAME": "Impact of Hydrocarbon Oil Spill on Coastal Plant Community", "ST_PROV": "Alabama", "PRJ_ACTPRIME": "Environmental Effects Research", "2010": 0, "2011": 12650, "2012": 0, "2013": 0, "2014": 0, "2015": 0, "2016": 0, "2017": 0, "Tot_DWH_Fund_Cont": 12650, "longitude": -85.76634262, "latitude": 33.82314082 }, "geometry": { "type": "Point", "coordinates": [ -85.76634262, 33.82314082 ] } },
{ "type": "Feature", "properties": { "PRJ_ID": 101, "PRJ_NAME": "The Assessment of Hydrocarbon and Hydrocarbon Dispersants Impacts on Embryos of Grass Shrimp (Palaemonetes Pugio)", "ST_PROV": "Alabama", "PRJ_ACTPRIME": "Environmental Effects Research", "2010": 0, "2011": 74750, "2012": 0, "2013": 0, "2014": 0, "2015": 0, "2016": 0, "2017": 0, "Tot_DWH_Fund_Cont": 74750, "longitude": -85.76634262, "latitude": 33.82314082 }, "geometry": { "type": "Point", "coordinates": [ -85.76634262, 33.82314082 ] } },
{ "type": "Feature", "properties": { "PRJ_ID": 102, "PRJ_NAME": "Evaluating the Changing Surfactant Capabilities of Sodium Dioctyl Sulfosuccinate and Its Commercial Product Forms of Corexit EC9500A, Corexit EC9527A and Corexit EC9580A in a Marine System", "ST_PROV": "Alabama", "PRJ_ACTPRIME": "Physical Aspects Research", "2010": 0, "2011": 14794, "2012": 0, "2013": 0, "2014": 0, "2015": 0, "2016": 0, "2017": 0, "Tot_DWH_Fund_Cont": 14794, "longitude": -85.76634262, "latitude": 33.82314082 }, "geometry": { "type": "Point", "coordinates": [ -85.76634262, 33.82314082 ] } },
{ "type": "Feature", "properties": { "PRJ_ID": 103, "PRJ_NAME": "Environmental Chemistry of the BP Oil Spill", "ST_PROV": "Alabama", "PRJ_ACTPRIME": "Chemical Aspects Research", "2010": 0, "2011": 247250, "2012": 0, "2013": 0, "2014": 0, "2015": 0, "2016": 0, "2017": 0, "Tot_DWH_Fund_Cont": 247250, "longitude": -85.76634262, "latitude": 33.82314082 }, "geometry": { "type": "Point", "coordinates": [ -85.76634262, 33.82314082 ] } },
{ "type": "Feature", "properties": { "PRJ_ID": 104, "PRJ_NAME": "Recovery: Benthic Meiofauna Survey", "ST_PROV": "Alabama", "PRJ_ACTPRIME": "Environmental Effects Research", "2010": 0, "2011": 210584, "2012": 0, "2013": 0, "2014": 0, "2015": 0, "2016": 0, "2017": 0, "Tot_DWH_Fund_Cont": 210584, "longitude": -85.76634262, "latitude": 33.82314082 }, "geometry": { "type": "Point", "coordinates": [ -85.76634262, 33.82314082 ] } },
{ "type": "Feature", "properties": { "PRJ_ID": 105, "PRJ_NAME": "Application of Passive Samplers to Monitor PAHs Concentrations in Water, Sediment Porewater, Sediment, and Commercially Important Organisms in the Gulf of Mexico in Order to Quantify Site-Specific, Chronic Damages to the Natural Resources", "ST_PROV": "FL, MD, TX", "PRJ_ACTPRIME": "Environmental Effects Research", "2010": 0, "2011": 95000, "2012": 0, "2013": 0, "2014": 0, "2015": 0, "2016": 0, "2017": 0, "Tot_DWH_Fund_Cont": 95000, "longitude": -76.62059878, "latitude": 39.32884429 }, "geometry": { "type": "Point", "coordinates": [ -76.62059878, 39.32884429 ] } },
{ "type": "Feature", "properties": { "PRJ_ID": 106, "PRJ_NAME": "Large Eddy Simulation of Turbulent Dispersion of Oil in the Ocean Surface Layers: Development, Testing and Applications of Subgrid-Scale Parameterizations", "ST_PROV": "MD, PA", "PRJ_ACTPRIME": "Physical Aspects Research", "2010": 0, "2011": 0, "2012": 0, "2013": 708851, "2014": 0, "2015": 0, "2016": 0, "2017": 0, "Tot_DWH_Fund_Cont": 708851, "longitude": -76.62059878, "latitude": 39.32884429 }, "geometry": { "type": "Point", "coordinates": [ -76.62059878, 39.32884429 ] } },
{ "type": "Feature", "properties": { "PRJ_ID": 107, "PRJ_NAME": "Wave and Surge Simulations for Spilled-Oil Redistribution By Gulf of Mexico Tropical Cyclones", "ST_PROV": "Louisiana", "PRJ_ACTPRIME": "Physical Aspects Research", "2010": 0, "2011": 74750, "2012": 0, "2013": 0, "2014": 0, "2015": 0, "2016": 0, "2017": 0, "Tot_DWH_Fund_Cont": 74750, "longitude": -91.17876066, "latitude": 30.41240716 }, "geometry": { "type": "Point", "coordinates": [ -91.17876066, 30.41240716 ] } },
{ "type": "Feature", "properties": { "PRJ_ID": 108, "PRJ_NAME": "Modeling, Data and Visualization of Deepwater Horizon Oil Spill", "ST_PROV": "Louisiana", "PRJ_ACTPRIME": "Environmental Effects Research", "2010": 800002, "2011": 0, "2012": 0, "2013": 0, "2014": 0, "2015": 0, "2016": 0, "2017": 0, "Tot_DWH_Fund_Cont": 800002, "longitude": -91.17876066, "latitude": 30.41240716 }, "geometry": { "type": "Point", "coordinates": [ -91.17876066, 30.41240716 ] } },
{ "type": "Feature", "properties": { "PRJ_ID": 109, "PRJ_NAME": "Biological Impacts of Oil and Dispersants on the Fish Fauna of Deep Waters: Assessing Impacts of the Deepwater Horizon Event", "ST_PROV": "Louisiana", "PRJ_ACTPRIME": "Environmental Effects Research", "2010": 249298, "2011": 0, "2012": 0, "2013": 0, "2014": 0, "2015": 0, "2016": 0, "2017": 0, "Tot_DWH_Fund_Cont": 249298, "longitude": -91.17876066, "latitude": 30.41240716 }, "geometry": { "type": "Point", "coordinates": [ -91.17876066, 30.41240716 ] } },
{ "type": "Feature", "properties": { "PRJ_ID": 110, "PRJ_NAME": "Water Column Characterization of Selected Metals Associated with Crude Oil as a Tracer for Plume Movement from the Deepwater Horizon Site", "ST_PROV": "Louisiana", "PRJ_ACTPRIME": "Physical Aspects Research", "2010": 39768, "2011": 0, "2012": 0, "2013": 0, "2014": 0, "2015": 0, "2016": 0, "2017": 0, "Tot_DWH_Fund_Cont": 39768, "longitude": -91.17876066, "latitude": 30.41240716 }, "geometry": { "type": "Point", "coordinates": [ -91.17876066, 30.41240716 ] } },
{ "type": "Feature", "properties": { "PRJ_ID": 111, "PRJ_NAME": "The Dynamics of Social Influence: A Longitudinal Look at Socially Structured Disaster Response", "ST_PROV": "Louisiana", "PRJ_ACTPRIME": "Public Health Research", "2010": 0, "2011": 104911, "2012": 0, "2013": 0, "2014": 0, "2015": 0, "2016": 0, "2017": 0, "Tot_DWH_Fund_Cont": 104911, "longitude": -91.17876066, "latitude": 30.41240716 }, "geometry": { "type": "Point", "coordinates": [ -91.17876066, 30.41240716 ] } },
{ "type": "Feature", "properties": { "PRJ_ID": 112, "PRJ_NAME": "Microbial Community Responses to Deepwater Horizon Oil Spill: Pre-Spill Background Assessment", "ST_PROV": "FL, GA, LA", "PRJ_ACTPRIME": "Environmental Effects Research", "2010": 179937, "2011": 0, "2012": 0, "2013": 0, "2014": 0, "2015": 0, "2016": 0, "2017": 0, "Tot_DWH_Fund_Cont": 179937, "longitude": -91.17876066, "latitude": 30.41240716 }, "geometry": { "type": "Point", "coordinates": [ -91.17876066, 30.41240716 ] } },
{ "type": "Feature", "properties": { "PRJ_ID": 113, "PRJ_NAME": "Dispersant Surfactants: Effect on Oil & Oil Soot Constituent Bioaccumulation and Developmental Toxicity in the Fish Embryo", "ST_PROV": "LA, MN", "PRJ_ACTPRIME": "Chemical Aspects Research", "2010": 144948, "2011": 0, "2012": 0, "2013": 0, "2014": 0, "2015": 0, "2016": 0, "2017": 0, "Tot_DWH_Fund_Cont": 144948, "longitude": -91.17876066, "latitude": 30.41240716 }, "geometry": { "type": "Point", "coordinates": [ -91.17876066, 30.41240716 ] } },
{ "type": "Feature", "properties": { "PRJ_ID": 114, "PRJ_NAME": "Elementally Resolved Chemistry of the Evolution of the Oil Spill", "ST_PROV": "AL, LA, TN, CAN - SK", "PRJ_ACTPRIME": "Chemical Aspects Research", "2010": 149999, "2011": 0, "2012": 0, "2013": 0, "2014": 0, "2015": 0, "2016": 0, "2017": 0, "Tot_DWH_Fund_Cont": 149999, "longitude": -91.17876066, "latitude": 30.41240716 }, "geometry": { "type": "Point", "coordinates": [ -91.17876066, 30.41240716 ] } },
{ "type": "Feature", "properties": { "PRJ_ID": 115, "PRJ_NAME": "The Influence of Oil Dispersants on the Biodegradation of South Louisiana Crude Oil and the Resulting Toxicological, Molecular and Physiological Effects on the Gulf Killifish", "ST_PROV": "LA, TX", "PRJ_ACTPRIME": "Chemical Aspects Research", "2010": 0, "2011": 311561, "2012": 0, "2013": 0, "2014": 0, "2015": 0, "2016": 0, "2017": 0, "Tot_DWH_Fund_Cont": 311561, "longitude": -91.17876066, "latitude": 30.41240716 }, "geometry": { "type": "Point", "coordinates": [ -91.17876066, 30.41240716 ] } },
{ "type": "Feature", "properties": { "PRJ_ID": 116, "PRJ_NAME": "Physiological Effects of Deepwater Horizon Oil on Phytoplankton and Microbial Communities from the Coastal\/nearshore Waters of Louisiana", "ST_PROV": "Louisiana", "PRJ_ACTPRIME": "Environmental Effects Research", "2010": 0, "2011": 225022, "2012": 0, "2013": 0, "2014": 0, "2015": 0, "2016": 0, "2017": 0, "Tot_DWH_Fund_Cont": 225022, "longitude": -91.17876066, "latitude": 30.41240716 }, "geometry": { "type": "Point", "coordinates": [ -91.17876066, 30.41240716 ] } },
{ "type": "Feature", "properties": { "PRJ_ID": 117, "PRJ_NAME": "Fates and Effects of the Deepwater Horizon Oil Spill on the Ecological Structure and Function of Coastal Wetland Ecosystems", "ST_PROV": "Louisiana", "PRJ_ACTPRIME": "Environmental Effects Research", "2010": 149573, "2011": 0, "2012": 0, "2013": 0, "2014": 0, "2015": 0, "2016": 0, "2017": 0, "Tot_DWH_Fund_Cont": 149573, "longitude": -91.17876066, "latitude": 30.41240716 }, "geometry": { "type": "Point", "coordinates": [ -91.17876066, 30.41240716 ] } },
{ "type": "Feature", "properties": { "PRJ_ID": 118, "PRJ_NAME": "Deepwater Horizon Oil Spill Impacts and Recovery in Louisiana Coastal Wetlands: Long-Term Effects on Plant-Soil-Benthic Systems", "ST_PROV": "Louisiana", "PRJ_ACTPRIME": "Environmental Effects Research", "2010": 249822, "2011": 0, "2012": 0, "2013": 0, "2014": 0, "2015": 0, "2016": 0, "2017": 0, "Tot_DWH_Fund_Cont": 249822, "longitude": -91.17876066, "latitude": 30.41240716 }, "geometry": { "type": "Point", "coordinates": [ -91.17876066, 30.41240716 ] } },
{ "type": "Feature", "properties": { "PRJ_ID": 119, "PRJ_NAME": "Monitoring Polycyclic Aromatic Hydrocarbon Exposure in Seafood with Imaging Mass Spectrometry", "ST_PROV": "Louisiana", "PRJ_ACTPRIME": "Oil System Safety Research", "2010": 148268, "2011": 0, "2012": 0, "2013": 0, "2014": 0, "2015": 0, "2016": 0, "2017": 0, "Tot_DWH_Fund_Cont": 148268, "longitude": -91.17876066, "latitude": 30.41240716 }, "geometry": { "type": "Point", "coordinates": [ -91.17876066, 30.41240716 ] } },
{ "type": "Feature", "properties": { "PRJ_ID": 120, "PRJ_NAME": "Recovery and Remediation of Emulsified Oil in Contaminated Marshes: Biostimulation and Natural Recovery", "ST_PROV": "Louisiana", "PRJ_ACTPRIME": "Chemical Aspects Research", "2010": 149967, "2011": 0, "2012": 0, "2013": 0, "2014": 0, "2015": 0, "2016": 0, "2017": 0, "Tot_DWH_Fund_Cont": 149967, "longitude": -91.17876066, "latitude": 30.41240716 }, "geometry": { "type": "Point", "coordinates": [ -91.17876066, 30.41240716 ] } },
{ "type": "Feature", "properties": { "PRJ_ID": 121, "PRJ_NAME": "Understanding the Phase Behavior of Oil\/ Dispersant\/ Water System at Different Salinities, Temperature and Pressure", "ST_PROV": "Louisiana", "PRJ_ACTPRIME": "Physical Aspects Research", "2010": 189998, "2011": 0, "2012": 0, "2013": 0, "2014": 0, "2015": 0, "2016": 0, "2017": 0, "Tot_DWH_Fund_Cont": 189998, "longitude": -91.17876066, "latitude": 30.41240716 }, "geometry": { "type": "Point", "coordinates": [ -91.17876066, 30.41240716 ] } },
{ "type": "Feature", "properties": { "PRJ_ID": 122, "PRJ_NAME": "Understanding the Social Impacts of the Deepwater Horizon Oil Spill in the Context of Community Vulnerability and Resiliency", "ST_PROV": "Louisiana", "PRJ_ACTPRIME": "Public Health Research", "2010": 128016, "2011": 0, "2012": 0, "2013": 0, "2014": 0, "2015": 0, "2016": 0, "2017": 0, "Tot_DWH_Fund_Cont": 128016, "longitude": -91.17876066, "latitude": 30.41240716 }, "geometry": { "type": "Point", "coordinates": [ -91.17876066, 30.41240716 ] } },
{ "type": "Feature", "properties": { "PRJ_ID": 123, "PRJ_NAME": "Functional Design and Sizing for Subsea Capping System", "ST_PROV": "Louisiana", "PRJ_ACTPRIME": "Oil System Safety Research", "2010": 0, "2011": 244999, "2012": 0, "2013": 0, "2014": 0, "2015": 0, "2016": 0, "2017": 0, "Tot_DWH_Fund_Cont": 244999, "longitude": -91.17876066, "latitude": 30.41240716 }, "geometry": { "type": "Point", "coordinates": [ -91.17876066, 30.41240716 ] } },
{ "type": "Feature", "properties": { "PRJ_ID": 124, "PRJ_NAME": "Analysis of Samples Collected to Measure Effects of Stressors on Coastal Wetlands", "ST_PROV": "LA, SD, TN", "PRJ_ACTPRIME": "Environmental Effects Research", "2010": 150000, "2011": 0, "2012": 0, "2013": 0, "2014": 0, "2015": 0, "2016": 0, "2017": 0, "Tot_DWH_Fund_Cont": 150000, "longitude": -91.17876066, "latitude": 30.41240716 }, "geometry": { "type": "Point", "coordinates": [ -91.17876066, 30.41240716 ] } },
{ "type": "Feature", "properties": { "PRJ_ID": 125, "PRJ_NAME": "Satellite Remote Sensing of the Deepwater Horizon Oil Spill: Providing a Context for Shipboard Measurements", "ST_PROV": "Louisiana", "PRJ_ACTPRIME": "Physical Aspects Research", "2010": 37540, "2011": 0, "2012": 0, "2013": 0, "2014": 0, "2015": 0, "2016": 0, "2017": 0, "Tot_DWH_Fund_Cont": 37540, "longitude": -91.17876066, "latitude": 30.41240716 }, "geometry": { "type": "Point", "coordinates": [ -91.17876066, 30.41240716 ] } },
{ "type": "Feature", "properties": { "PRJ_ID": 126, "PRJ_NAME": "Development of A High Sensitivity, Lab-on-Chip Instrument for On-site Monitoring of Spilled Oil in Coastal Water", "ST_PROV": "Louisiana", "PRJ_ACTPRIME": "Oil System Safety Research", "2010": 0, "2011": 239856, "2012": 0, "2013": 0, "2014": 0, "2015": 0, "2016": 0, "2017": 0, "Tot_DWH_Fund_Cont": 239856, "longitude": -91.17876066, "latitude": 30.41240716 }, "geometry": { "type": "Point", "coordinates": [ -91.17876066, 30.41240716 ] } },
{ "type": "Feature", "properties": { "PRJ_ID": 127, "PRJ_NAME": "Novel Nanomaterials for Absorption and Decomposition of Oil and Dispersed Oil", "ST_PROV": "Louisiana", "PRJ_ACTPRIME": "Oil System Safety Research", "2010": 0, "2011": 100603, "2012": 0, "2013": 0, "2014": 0, "2015": 0, "2016": 0, "2017": 0, "Tot_DWH_Fund_Cont": 100603, "longitude": -91.17876066, "latitude": 30.41240716 }, "geometry": { "type": "Point", "coordinates": [ -91.17876066, 30.41240716 ] } },
{ "type": "Feature", "properties": { "PRJ_ID": 128, "PRJ_NAME": "Deepwater Horizon Oil Exposure Effects on Marsh Fishes in At-Risk Habitats: Integrated Laboratory and Field Studies", "ST_PROV": "LA, SC, TX", "PRJ_ACTPRIME": "Environmental Effects Research", "2010": 149967, "2011": 0, "2012": 0, "2013": 0, "2014": 0, "2015": 0, "2016": 0, "2017": 0, "Tot_DWH_Fund_Cont": 149967, "longitude": -91.17876066, "latitude": 30.41240716 }, "geometry": { "type": "Point", "coordinates": [ -91.17876066, 30.41240716 ] } },
{ "type": "Feature", "properties": { "PRJ_ID": 129, "PRJ_NAME": "An Interdisciplinary Topic Map for Understanding the Impact of the Gulf of Mexico Oil Spill Incident", "ST_PROV": "Louisiana", "PRJ_ACTPRIME": "Oil System Safety Research", "2010": 0, "2011": 166307, "2012": 0, "2013": 0, "2014": 0, "2015": 0, "2016": 0, "2017": 0, "Tot_DWH_Fund_Cont": 166307, "longitude": -91.17876066, "latitude": 30.41240716 }, "geometry": { "type": "Point", "coordinates": [ -91.17876066, 30.41240716 ] } },
{ "type": "Feature", "properties": { "PRJ_ID": 130, "PRJ_NAME": "Documenting Impacts of the Subsea Plume Using Gulf SERPENT ROV Surveys", "ST_PROV": "LA, MD, WI", "PRJ_ACTPRIME": "Environmental Effects Research", "2010": 56090, "2011": 0, "2012": 0, "2013": 0, "2014": 0, "2015": 0, "2016": 0, "2017": 0, "Tot_DWH_Fund_Cont": 56090, "longitude": -91.17876066, "latitude": 30.41240716 }, "geometry": { "type": "Point", "coordinates": [ -91.17876066, 30.41240716 ] } },
{ "type": "Feature", "properties": { "PRJ_ID": 131, "PRJ_NAME": "Post Macondo Well Oil Spill Water Quality Sampling - Barataria, Lake Pontchartrain, and Coastal Waters. Part 2", "ST_PROV": "Louisiana", "PRJ_ACTPRIME": "Chemical Aspects Research", "2010": 0, "2011": 59653, "2012": 0, "2013": 0, "2014": 0, "2015": 0, "2016": 0, "2017": 0, "Tot_DWH_Fund_Cont": 59653, "longitude": -91.17876066, "latitude": 30.41240716 }, "geometry": { "type": "Point", "coordinates": [ -91.17876066, 30.41240716 ] } },
{ "type": "Feature", "properties": { "PRJ_ID": 132, "PRJ_NAME": "Impact of Deepwater Horizon Oil Spill on the Louisiana Coastal Environments", "ST_PROV": "LA, TX", "PRJ_ACTPRIME": "Physical Aspects Research", "2010": 100000, "2011": 0, "2012": 0, "2013": 0, "2014": 0, "2015": 0, "2016": 0, "2017": 0, "Tot_DWH_Fund_Cont": 100000, "longitude": -91.17876066, "latitude": 30.41240716 }, "geometry": { "type": "Point", "coordinates": [ -91.17876066, 30.41240716 ] } },
{ "type": "Feature", "properties": { "PRJ_ID": 133, "PRJ_NAME": "Osprey Restoration in Coastal Alabama", "ST_PROV": "Alabama", "PRJ_ACTPRIME": "Species Restoration", "2010": 0, "2011": 0, "2012": 0, "2013": 0, "2014": 0, "2015": 45000, "2016": 0, "2017": 0, "Tot_DWH_Fund_Cont": 45000, "longitude": -88.0101, "latitude": 30.2318 }, "geometry": { "type": "Point", "coordinates": [ -88.0101, 30.2318 ] } },
{ "type": "Feature", "properties": { "PRJ_ID": 134, "PRJ_NAME": "Acquisition of a Towed, Zooplankton Imaging System for Use in Quantifying the Distribution and Abundance of Zooplankton in the Waters around the MC252 Incident Site", "ST_PROV": "Louisiana", "PRJ_ACTPRIME": "Oil System Safety Research", "2010": 0, "2011": 249967, "2012": 0, "2013": 0, "2014": 0, "2015": 0, "2016": 0, "2017": 0, "Tot_DWH_Fund_Cont": 249967, "longitude": -91.17876066, "latitude": 30.41240716 }, "geometry": { "type": "Point", "coordinates": [ -91.17876066, 30.41240716 ] } },
{ "type": "Feature", "properties": { "PRJ_ID": 135, "PRJ_NAME": "Coping with Natural and Technological Disasters:  Human Adaptive Capacities after Katrina and the Deepwater Horizon Oil Spill", "ST_PROV": "Louisiana", "PRJ_ACTPRIME": "Public Health Research", "2010": 150000, "2011": 0, "2012": 0, "2013": 0, "2014": 0, "2015": 0, "2016": 0, "2017": 0, "Tot_DWH_Fund_Cont": 150000, "longitude": -91.17876066, "latitude": 30.41240716 }, "geometry": { "type": "Point", "coordinates": [ -91.17876066, 30.41240716 ] } },
{ "type": "Feature", "properties": { "PRJ_ID": 136, "PRJ_NAME": "BP Research Program Management", "ST_PROV": "Louisiana", "PRJ_ACTPRIME": "Physical Aspects Research", "2010": 947460, "2011": 0, "2012": 0, "2013": 0, "2014": 0, "2015": 0, "2016": 0, "2017": 0, "Tot_DWH_Fund_Cont": 947460, "longitude": -91.17876066, "latitude": 30.41240716 }, "geometry": { "type": "Point", "coordinates": [ -91.17876066, 30.41240716 ] } },
{ "type": "Feature", "properties": { "PRJ_ID": 137, "PRJ_NAME": "Decision Making in Post-Catastrophe Uncertainty: An Examination of Impacts of the Gulf of Mexico Oil Spill on Local Businesses in Coastal Louisiana", "ST_PROV": "Louisiana", "PRJ_ACTPRIME": "Environmental Effects Research", "2010": 149999, "2011": 0, "2012": 0, "2013": 0, "2014": 0, "2015": 0, "2016": 0, "2017": 0, "Tot_DWH_Fund_Cont": 149999, "longitude": -91.17876066, "latitude": 30.41240716 }, "geometry": { "type": "Point", "coordinates": [ -91.17876066, 30.41240716 ] } },
{ "type": "Feature", "properties": { "PRJ_ID": 138, "PRJ_NAME": "Long-term Site Selection and Analysis of Biota to Determine the Effect of Oil, Dispersant, and Remediation-related Human Activities on Marsh Plants and Associated Insects and Mollusks", "ST_PROV": "LA, SD", "PRJ_ACTPRIME": "Environmental Effects Research", "2010": 0, "2011": 249999, "2012": 0, "2013": 0, "2014": 0, "2015": 0, "2016": 0, "2017": 0, "Tot_DWH_Fund_Cont": 249999, "longitude": -91.17876066, "latitude": 30.41240716 }, "geometry": { "type": "Point", "coordinates": [ -91.17876066, 30.41240716 ] } },
{ "type": "Feature", "properties": { "PRJ_ID": 139, "PRJ_NAME": "Analysis of Massive In Situ Data from Moorings and Ships for Fate of Oil Spills and Dispersant and for Supporting Model Validation", "ST_PROV": "Louisiana", "PRJ_ACTPRIME": "Physical Aspects Research", "2010": 114999, "2011": 0, "2012": 0, "2013": 0, "2014": 0, "2015": 0, "2016": 0, "2017": 0, "Tot_DWH_Fund_Cont": 114999, "longitude": -91.17876066, "latitude": 30.41240716 }, "geometry": { "type": "Point", "coordinates": [ -91.17876066, 30.41240716 ] } },
{ "type": "Feature", "properties": { "PRJ_ID": 140, "PRJ_NAME": "Aquatic Primary Productivity and Spatial\/Temporal Water Quality Variations of the Breton Sound Estuary and Impacts of Oil Pollution", "ST_PROV": "Louisiana", "PRJ_ACTPRIME": "Physical Aspects Research", "2010": 0, "2011": 168002, "2012": 0, "2013": 0, "2014": 0, "2015": 0, "2016": 0, "2017": 0, "Tot_DWH_Fund_Cont": 168002, "longitude": -91.17876066, "latitude": 30.41240716 }, "geometry": { "type": "Point", "coordinates": [ -91.17876066, 30.41240716 ] } },
{ "type": "Feature", "properties": { "PRJ_ID": 141, "PRJ_NAME": "Tracking Community Resilience in the Wake of the Deepwater Horizon Disaster: Developing Infrastructure for Analyzing the Human Impact on Coastal Communities", "ST_PROV": "Louisiana", "PRJ_ACTPRIME": "Environmental Effects Research", "2010": 65974, "2011": 0, "2012": 0, "2013": 0, "2014": 0, "2015": 0, "2016": 0, "2017": 0, "Tot_DWH_Fund_Cont": 65974, "longitude": -91.17876066, "latitude": 30.41240716 }, "geometry": { "type": "Point", "coordinates": [ -91.17876066, 30.41240716 ] } },
{ "type": "Feature", "properties": { "PRJ_ID": 142, "PRJ_NAME": "Effects of Oil, Dispersant, and Remediation-related Human Activities on Marsh Plants and Associated Insects and Mollusks", "ST_PROV": "LA, SD, TN", "PRJ_ACTPRIME": "Chemical Aspects Research", "2010": 0, "2011": 100758, "2012": 0, "2013": 0, "2014": 0, "2015": 0, "2016": 0, "2017": 0, "Tot_DWH_Fund_Cont": 100758, "longitude": -91.17876066, "latitude": 30.41240716 }, "geometry": { "type": "Point", "coordinates": [ -91.17876066, 30.41240716 ] } },
{ "type": "Feature", "properties": { "PRJ_ID": 143, "PRJ_NAME": "Macondo 252 Oil Spill Impacts in Louisiana Coastal Wetlands: Effects on Soil-Microbial-Plant Systems", "ST_PROV": "Louisiana", "PRJ_ACTPRIME": "Chemical Aspects Research", "2010": 0, "2011": 63143, "2012": 0, "2013": 0, "2014": 0, "2015": 0, "2016": 0, "2017": 0, "Tot_DWH_Fund_Cont": 63143, "longitude": -91.17876066, "latitude": 30.41240716 }, "geometry": { "type": "Point", "coordinates": [ -91.17876066, 30.41240716 ] } },
{ "type": "Feature", "properties": { "PRJ_ID": 144, "PRJ_NAME": "Field Observation and Modeling of the Impact of Oil Spill on Marsh Erosion in Southern Louisiana", "ST_PROV": "Louisiana", "PRJ_ACTPRIME": "Physical Aspects Research", "2010": 0, "2011": 681464, "2012": 0, "2013": 0, "2014": 0, "2015": 0, "2016": 0, "2017": 0, "Tot_DWH_Fund_Cont": 681464, "longitude": -91.17876066, "latitude": 30.41240716 }, "geometry": { "type": "Point", "coordinates": [ -91.17876066, 30.41240716 ] } },
{ "type": "Feature", "properties": { "PRJ_ID": 145, "PRJ_NAME": "Louisiana State University Agricultural Center: Oil-Contaminated Sample Collection in Louisiana Coastal Areas: Toward an Optical Sensor for Quick Detection and Quantification", "ST_PROV": "Louisiana", "PRJ_ACTPRIME": "Oil System Safety Research", "2010": 0, "2011": 48178, "2012": 0, "2013": 0, "2014": 0, "2015": 0, "2016": 0, "2017": 0, "Tot_DWH_Fund_Cont": 48178, "longitude": -91.17876066, "latitude": 30.41240716 }, "geometry": { "type": "Point", "coordinates": [ -91.17876066, 30.41240716 ] } },
{ "type": "Feature", "properties": { "PRJ_ID": 146, "PRJ_NAME": "Biodegradability of MC252 Oil-Sand Aggregates on Rapidly Eroding Coastal Beach Environments", "ST_PROV": "HI, LA", "PRJ_ACTPRIME": "Chemical Aspects Research", "2010": 0, "2011": 56006, "2012": 0, "2013": 0, "2014": 0, "2015": 0, "2016": 0, "2017": 0, "Tot_DWH_Fund_Cont": 56006, "longitude": -91.17876066, "latitude": 30.41240716 }, "geometry": { "type": "Point", "coordinates": [ -91.17876066, 30.41240716 ] } },
{ "type": "Feature", "properties": { "PRJ_ID": 147, "PRJ_NAME": "Accelerating Recovery after the Deepwater Horizon Oil Spill: Response of the Plant-Microbial-Benthic Ecosystem to Mitigation Strategies Promoting Wetland Remediation and Resilience", "ST_PROV": "FL, LA", "PRJ_ACTPRIME": "Environmental Effects Research", "2010": 0, "2011": 0, "2012": 0, "2013": 1669040, "2014": 0, "2015": 0, "2016": 0, "2017": 0, "Tot_DWH_Fund_Cont": 1669040, "longitude": -91.17876066, "latitude": 30.41240716 }, "geometry": { "type": "Point", "coordinates": [ -91.17876066, 30.41240716 ] } },
{ "type": "Feature", "properties": { "PRJ_ID": 148, "PRJ_NAME": "Tracking Community Resilience in the Wake of the Deepwater Horizon Disaster: Assessing the Evidence", "ST_PROV": "Louisiana", "PRJ_ACTPRIME": "Public Health Research", "2010": 0, "2011": 60553, "2012": 0, "2013": 0, "2014": 0, "2015": 0, "2016": 0, "2017": 0, "Tot_DWH_Fund_Cont": 60553, "longitude": -91.17876066, "latitude": 30.41240716 }, "geometry": { "type": "Point", "coordinates": [ -91.17876066, 30.41240716 ] } },
{ "type": "Feature", "properties": { "PRJ_ID": 149, "PRJ_NAME": "Psychosocial and Health Consequences After Disaster: Human Adaptive Capacities and the Deepwater Horizon Oil Spill", "ST_PROV": "Louisiana", "PRJ_ACTPRIME": "Public Health Research", "2010": 0, "2011": 121998, "2012": 0, "2013": 0, "2014": 0, "2015": 0, "2016": 0, "2017": 0, "Tot_DWH_Fund_Cont": 121998, "longitude": -91.17876066, "latitude": 30.41240716 }, "geometry": { "type": "Point", "coordinates": [ -91.17876066, 30.41240716 ] } },
{ "type": "Feature", "properties": { "PRJ_ID": 150, "PRJ_NAME": "Developmental Toxicity of Weathered Water-in-Oil Emulsions in Fish Embryos", "ST_PROV": "LA, MN", "PRJ_ACTPRIME": "Chemical Aspects Research", "2010": 51659, "2011": 0, "2012": 0, "2013": 0, "2014": 0, "2015": 0, "2016": 0, "2017": 0, "Tot_DWH_Fund_Cont": 51659, "longitude": -91.17876066, "latitude": 30.41240716 }, "geometry": { "type": "Point", "coordinates": [ -91.17876066, 30.41240716 ] } },
{ "type": "Feature", "properties": { "PRJ_ID": 151, "PRJ_NAME": "Collection of Near-Shore Sediment Samples Associated with Potential Fishery Impacts", "ST_PROV": "Louisiana", "PRJ_ACTPRIME": "Physical Aspects Research", "2010": 0, "2011": 250711, "2012": 0, "2013": 0, "2014": 0, "2015": 0, "2016": 0, "2017": 0, "Tot_DWH_Fund_Cont": 250711, "longitude": -91.17876066, "latitude": 30.41240716 }, "geometry": { "type": "Point", "coordinates": [ -91.17876066, 30.41240716 ] } },
{ "type": "Feature", "properties": { "PRJ_ID": 152, "PRJ_NAME": "Observations and Modeling to Advance a Louisiana Coastal Circulation and Oil Spill Prediction System", "ST_PROV": "LA, MS", "PRJ_ACTPRIME": "Physical Aspects Research", "2010": 0, "2011": 0, "2012": 900000, "2013": 0, "2014": 0, "2015": 0, "2016": 0, "2017": 0, "Tot_DWH_Fund_Cont": 900000, "longitude": -91.17876066, "latitude": 30.41240716 }, "geometry": { "type": "Point", "coordinates": [ -91.17876066, 30.41240716 ] } },
{ "type": "Feature", "properties": { "PRJ_ID": 153, "PRJ_NAME": "A Multidisciplinary Analysis of Linkages among Wetland Vegetation, Rhizosphere Microbial Communities and Soil Stability and Decreased Coastal Wetland Sustainability in Response to Oiling", "ST_PROV": "Louisiana", "PRJ_ACTPRIME": "Environmental Effects Research", "2010": 0, "2011": 0, "2012": 800000, "2013": 0, "2014": 0, "2015": 0, "2016": 0, "2017": 0, "Tot_DWH_Fund_Cont": 800000, "longitude": -91.17876066, "latitude": 30.41240716 }, "geometry": { "type": "Point", "coordinates": [ -91.17876066, 30.41240716 ] } },
{ "type": "Feature", "properties": { "PRJ_ID": 154, "PRJ_NAME": "Integrated Laboratory and Field Studies on effects of Oil on Key Wetland Soil\/Sediment Biogeochemical Processes.", "ST_PROV": "FL, LA", "PRJ_ACTPRIME": "Chemical Aspects Research", "2010": 0, "2011": 0, "2012": 550000, "2013": 0, "2014": 0, "2015": 0, "2016": 0, "2017": 0, "Tot_DWH_Fund_Cont": 550000, "longitude": -91.17876066, "latitude": 30.41240716 }, "geometry": { "type": "Point", "coordinates": [ -91.17876066, 30.41240716 ] } },
{ "type": "Feature", "properties": { "PRJ_ID": 155, "PRJ_NAME": "Investigating the Potential Ecological Impacts of the Deepwater Horizon Oil Spill and the Biologically-mediated Mechanisms of Removal of Polycyclic Aromatic Hydrocarbons (PAHs)", "ST_PROV": "LA, MA", "PRJ_ACTPRIME": "Chemical Aspects Research", "2010": 0, "2011": 0, "2012": 900000, "2013": 0, "2014": 0, "2015": 0, "2016": 0, "2017": 0, "Tot_DWH_Fund_Cont": 900000, "longitude": -91.17876066, "latitude": 30.41240716 }, "geometry": { "type": "Point", "coordinates": [ -91.17876066, 30.41240716 ] } },
{ "type": "Feature", "properties": { "PRJ_ID": 156, "PRJ_NAME": "Biodegradation Processes in Oiled Marshes: Remediation and Recovery in Rapidly Eroding Coastal Systems", "ST_PROV": "LA, TX", "PRJ_ACTPRIME": "Chemical Aspects Research", "2010": 0, "2011": 0, "2012": 700033, "2013": 0, "2014": 0, "2015": 0, "2016": 0, "2017": 0, "Tot_DWH_Fund_Cont": 700033, "longitude": -91.17876066, "latitude": 30.41240716 }, "geometry": { "type": "Point", "coordinates": [ -91.17876066, 30.41240716 ] } },
{ "type": "Feature", "properties": { "PRJ_ID": 157, "PRJ_NAME": "Assessing the Fate of Hydrocarbons, Heavy Metals and Dispersants in Louisiana Marsh Soil and Development of Bioremediation Strategy", "ST_PROV": "Louisiana", "PRJ_ACTPRIME": "Environmental Effects Research", "2010": 149554, "2011": 0, "2012": 0, "2013": 0, "2014": 0, "2015": 0, "2016": 0, "2017": 0, "Tot_DWH_Fund_Cont": 149554, "longitude": -91.17868528, "latitude": 30.41520421 }, "geometry": { "type": "Point", "coordinates": [ -91.17868528, 30.41520421 ] } },
{ "type": "Feature", "properties": { "PRJ_ID": 158, "PRJ_NAME": "Continued Sampling of Tabanid Populations as Indicators of Acute and Potentially Chronic Effects of Oil Spill Stress on Coastal Marsh Health", "ST_PROV": "Louisiana", "PRJ_ACTPRIME": "Environmental Effects Research", "2010": 0, "2011": 80898, "2012": 0, "2013": 0, "2014": 0, "2015": 0, "2016": 0, "2017": 0, "Tot_DWH_Fund_Cont": 80898, "longitude": -91.17868528, "latitude": 30.41520421 }, "geometry": { "type": "Point", "coordinates": [ -91.17868528, 30.41520421 ] } },
{ "type": "Feature", "properties": { "PRJ_ID": 159, "PRJ_NAME": "Oyster Health and Reproduction One Year After the Deepwater Horizon Oil Spill", "ST_PROV": "FL, LA", "PRJ_ACTPRIME": "Environmental Effects Research", "2010": 0, "2011": 88915, "2012": 0, "2013": 0, "2014": 0, "2015": 0, "2016": 0, "2017": 0, "Tot_DWH_Fund_Cont": 88915, "longitude": -91.17868528, "latitude": 30.41520421 }, "geometry": { "type": "Point", "coordinates": [ -91.17868528, 30.41520421 ] } },
{ "type": "Feature", "properties": { "PRJ_ID": 160, "PRJ_NAME": "Defining Ecologically Relevant Sublethal Effects: How do Low Levels of Exposure to Oil and Dispersants Affect Performance and Survival of Larvae of Gulf Nekton?", "ST_PROV": "LA, NC, TX, WA", "PRJ_ACTPRIME": "Environmental Effects Research", "2010": 0, "2011": 0, "2012": 657945, "2013": 0, "2014": 0, "2015": 0, "2016": 0, "2017": 0, "Tot_DWH_Fund_Cont": 657945, "longitude": -90.66172589, "latitude": 29.25448062 }, "geometry": { "type": "Point", "coordinates": [ -90.66172589, 29.25448062 ] } },
{ "type": "Feature", "properties": { "PRJ_ID": 161, "PRJ_NAME": "Coastal Waters Consortium II (CWC II)", "ST_PROV": "CT, FL, LA, MA, MD, ME, MS, NC, NJ, TN, TX, VA", "PRJ_ACTPRIME": "Physical Aspects Research", "2010": 0, "2011": 0, "2012": 0, "2013": 0, "2014": 0, "2015": 16113900, "2016": 0, "2017": 0, "Tot_DWH_Fund_Cont": 16113900, "longitude": -90.66172589, "latitude": 29.25448062 }, "geometry": { "type": "Point", "coordinates": [ -90.66172589, 29.25448062 ] } },
{ "type": "Feature", "properties": { "PRJ_ID": 162, "PRJ_NAME": "Using Embryonic Stem Cell Fate to Determine Potential Adverse Effects of Petroleum\/Dispersant Exposure", "ST_PROV": "FL, IN, MN, SC", "PRJ_ACTPRIME": "Public Health Research", "2010": 0, "2011": 0, "2012": 0, "2013": 1148710, "2014": 0, "2015": 0, "2016": 0, "2017": 0, "Tot_DWH_Fund_Cont": 1148710, "longitude": -79.94790533, "latitude": 32.78585488 }, "geometry": { "type": "Point", "coordinates": [ -79.94790533, 32.78585488 ] } },
{ "type": "Feature", "properties": { "PRJ_ID": 163, "PRJ_NAME": "Integrated Assessment of Oil Spill", "ST_PROV": "Mississippi", "PRJ_ACTPRIME": "Physical Aspects Research", "2010": 1000000, "2011": 0, "2012": 0, "2013": 0, "2014": 0, "2015": 0, "2016": 0, "2017": 0, "Tot_DWH_Fund_Cont": 1000000, "longitude": -88.79588359, "latitude": 33.46483563 }, "geometry": { "type": "Point", "coordinates": [ -88.79588359, 33.46483563 ] } },
{ "type": "Feature", "properties": { "PRJ_ID": 164, "PRJ_NAME": "The Influence of Weather and Ocean Processes Using Numerical Modeling on the Fate and Transport of the Deepwater Horizon Oil Spill", "ST_PROV": "Mississippi", "PRJ_ACTPRIME": "Physical Aspects Research", "2010": 0, "2011": 140000, "2012": 0, "2013": 0, "2014": 0, "2015": 0, "2016": 0, "2017": 0, "Tot_DWH_Fund_Cont": 140000, "longitude": -88.79588359, "latitude": 33.46483563 }, "geometry": { "type": "Point", "coordinates": [ -88.79588359, 33.46483563 ] } },
{ "type": "Feature", "properties": { "PRJ_ID": 165, "PRJ_NAME": "Quantitative Studies of the Effects of Oil Exposure on the Pelagic Microbial Community and Sheepshead Minnow, Using a Global Proteomics Approach", "ST_PROV": "Mississippi", "PRJ_ACTPRIME": "Environmental Effects Research", "2010": 0, "2011": 749181, "2012": 0, "2013": 0, "2014": 0, "2015": 0, "2016": 0, "2017": 0, "Tot_DWH_Fund_Cont": 749181, "longitude": -88.79588359, "latitude": 33.46483563 }, "geometry": { "type": "Point", "coordinates": [ -88.79588359, 33.46483563 ] } },
{ "type": "Feature", "properties": { "PRJ_ID": 166, "PRJ_NAME": "Extend Sulis Toolkit", "ST_PROV": "AL, FL, LA, MS", "PRJ_ACTPRIME": "Environmental Effects Research", "2010": 0, "2011": 188074, "2012": 0, "2013": 0, "2014": 0, "2015": 0, "2016": 0, "2017": 0, "Tot_DWH_Fund_Cont": 188074, "longitude": -88.79588359, "latitude": 33.46483563 }, "geometry": { "type": "Point", "coordinates": [ -88.79588359, 33.46483563 ] } },
{ "type": "Feature", "properties": { "PRJ_ID": 167, "PRJ_NAME": "Analyses of the Effects of Crude Oil on Increased Disease Susceptibility and Physiological Responses of Selected Gulf of Mexico Fishes", "ST_PROV": "AL, LA, MS", "PRJ_ACTPRIME": "Chemical Aspects Research", "2010": 0, "2011": 250000, "2012": 0, "2013": 0, "2014": 0, "2015": 0, "2016": 0, "2017": 0, "Tot_DWH_Fund_Cont": 250000, "longitude": -88.79588359, "latitude": 33.46483563 }, "geometry": { "type": "Point", "coordinates": [ -88.79588359, 33.46483563 ] } },
{ "type": "Feature", "properties": { "PRJ_ID": 168, "PRJ_NAME": "OIL:  Community Earth Modeling System for the Northern Gulf of Mexico", "ST_PROV": "FL, LA, MS", "PRJ_ACTPRIME": "Physical Aspects Research", "2010": 0, "2011": 91253, "2012": 0, "2013": 0, "2014": 0, "2015": 0, "2016": 0, "2017": 0, "Tot_DWH_Fund_Cont": 91253, "longitude": -88.79588359, "latitude": 33.46483563 }, "geometry": { "type": "Point", "coordinates": [ -88.79588359, 33.46483563 ] } },
{ "type": "Feature", "properties": { "PRJ_ID": 169, "PRJ_NAME": "Comprehensive Study of Impact of the Deepwater Horizon Oil Spill on the Health and Productivity of Gulf Coast Salt Marshes", "ST_PROV": "Mississippi", "PRJ_ACTPRIME": "Environmental Effects Research", "2010": 0, "2011": 80876, "2012": 0, "2013": 0, "2014": 0, "2015": 0, "2016": 0, "2017": 0, "Tot_DWH_Fund_Cont": 80876, "longitude": -88.79588359, "latitude": 33.46483563 }, "geometry": { "type": "Point", "coordinates": [ -88.79588359, 33.46483563 ] } },
{ "type": "Feature", "properties": { "PRJ_ID": 170, "PRJ_NAME": "Characterizing the Composition and Biogeochemical Behavior of Dispersants and Their Transformation Products in Gulf of Mexico Coastal Ecosystems", "ST_PROV": "LA, MS, NC, NY", "PRJ_ACTPRIME": "Chemical Aspects Research", "2010": 0, "2011": 0, "2012": 1122300, "2013": 0, "2014": 0, "2015": 0, "2016": 0, "2017": 0, "Tot_DWH_Fund_Cont": 1122300, "longitude": -88.79588359, "latitude": 33.46483563 }, "geometry": { "type": "Point", "coordinates": [ -88.79588359, 33.46483563 ] } },
{ "type": "Feature", "properties": { "PRJ_ID": 171, "PRJ_NAME": "Effects of the Deepwater Horizon Oil Spill on Epipelagic and Large Coastal Sharks and Teleosts of the Gulf of Mexico", "ST_PROV": "AL, CA, CT, FL, MA, NH, RI", "PRJ_ACTPRIME": "Environmental Effects Research", "2010": 243811, "2011": 0, "2012": 0, "2013": 0, "2014": 0, "2015": 0, "2016": 0, "2017": 0, "Tot_DWH_Fund_Cont": 243811, "longitude": -82.57770214, "latitude": 27.33255609 }, "geometry": { "type": "Point", "coordinates": [ -82.57770214, 27.33255609 ] } },
{ "type": "Feature", "properties": { "PRJ_ID": 172, "PRJ_NAME": "Monitoring of the Coastal Pelagic Fish Complex for Assessing DWH-Related Trophic Changes and Contaminant Exposure", "ST_PROV": "Florida", "PRJ_ACTPRIME": "Physical Aspects Research", "2010": 216692, "2011": 0, "2012": 0, "2013": 0, "2014": 0, "2015": 0, "2016": 0, "2017": 0, "Tot_DWH_Fund_Cont": 216692, "longitude": -80.24211952, "latitude": 26.08056468 }, "geometry": { "type": "Point", "coordinates": [ -80.24211952, 26.08056468 ] } },
{ "type": "Feature", "properties": { "PRJ_ID": 173, "PRJ_NAME": "Baseline and Oil Spill Impacted Marine Sponge Microbial Communities and Gene Expression Analysis with Metagenomics", "ST_PROV": "FL, GA, IL", "PRJ_ACTPRIME": "Environmental Effects Research", "2010": 219004, "2011": 0, "2012": 0, "2013": 0, "2014": 0, "2015": 0, "2016": 0, "2017": 0, "Tot_DWH_Fund_Cont": 219004, "longitude": -80.24211952, "latitude": 26.08056468 }, "geometry": { "type": "Point", "coordinates": [ -80.24211952, 26.08056468 ] } },
{ "type": "Feature", "properties": { "PRJ_ID": 174, "PRJ_NAME": "Consortium for Resilient Gulf Communities (CRGC)", "ST_PROV": "AL, LA", "PRJ_ACTPRIME": "Public Health Research", "2010": 0, "2011": 0, "2012": 0, "2013": 0, "2014": 0, "2015": 8000000, "2016": 0, "2017": 0, "Tot_DWH_Fund_Cont": 8000000, "longitude": -90.06993059, "latitude": 29.9491575 }, "geometry": { "type": "Point", "coordinates": [ -90.06993059, 29.9491575 ] } },
{ "type": "Feature", "properties": { "PRJ_ID": 175, "PRJ_NAME": "A Molecular Survey of Marine Cilliates in Oil-Spill Contaminated Waters", "ST_PROV": "Alabama", "PRJ_ACTPRIME": "Chemical Aspects Research", "2010": 0, "2011": 76866, "2012": 0, "2013": 0, "2014": 0, "2015": 0, "2016": 0, "2017": 0, "Tot_DWH_Fund_Cont": 76866, "longitude": -86.79042013, "latitude": 33.46308261 }, "geometry": { "type": "Point", "coordinates": [ -86.79042013, 33.46308261 ] } },
{ "type": "Feature", "properties": { "PRJ_ID": 176, "PRJ_NAME": "Genetic Implications of Relocating Loggerhead Sea Turtle Eggs from the Alabama Coast in Response to the Deep Water Horizon Oil Spill", "ST_PROV": "Alabama", "PRJ_ACTPRIME": "Environmental Effects Research", "2010": 0, "2011": 87400, "2012": 0, "2013": 0, "2014": 0, "2015": 0, "2016": 0, "2017": 0, "Tot_DWH_Fund_Cont": 87400, "longitude": -86.79042013, "latitude": 33.46308261 }, "geometry": { "type": "Point", "coordinates": [ -86.79042013, 33.46308261 ] } },
{ "type": "Feature", "properties": { "PRJ_ID": 177, "PRJ_NAME": "Gulf of Mexico Integrated Spill Response Consortium (GISR)", "ST_PROV": "AZ, CA, FL, GA, HI, MA, MD, NC, NY, RI, TX, MX - DF, GBR - WLS", "PRJ_ACTPRIME": "Physical Aspects Research", "2010": 0, "2011": 14403000, "2012": 0, "2013": 0, "2014": 0, "2015": 0, "2016": 0, "2017": 0, "Tot_DWH_Fund_Cont": 14403000, "longitude": -96.34230938, "latitude": 30.61491411 }, "geometry": { "type": "Point", "coordinates": [ -96.34230938, 30.61491411 ] } },
{ "type": "Feature", "properties": { "PRJ_ID": 178, "PRJ_NAME": "Gulf of Mexico Research and Resource Support Tools (GulfBase, Gulf of Mexico Biodiversity Project, Gulf of Mexico books, etc.)", "ST_PROV": "Texas", "PRJ_ACTPRIME": "Environmental Effects Research", "2010": 135891, "2011": 0, "2012": 0, "2013": 0, "2014": 0, "2015": 0, "2016": 0, "2017": 0, "Tot_DWH_Fund_Cont": 135891, "longitude": -97.32436481000001, "latitude": 27.7126064 }, "geometry": { "type": "Point", "coordinates": [ -97.32436481, 27.7126064 ] } },
{ "type": "Feature", "properties": { "PRJ_ID": 179, "PRJ_NAME": "Texas Agrilife Research: Oil-Contaminated Sample Collection in Louisiana Coastal Areas: Toward an Optical Sensor for Quick Detection and Quantification", "ST_PROV": "Texas", "PRJ_ACTPRIME": "Oil System Safety Research", "2010": 0, "2011": 41184, "2012": 0, "2013": 0, "2014": 0, "2015": 0, "2016": 0, "2017": 0, "Tot_DWH_Fund_Cont": 41184, "longitude": -98.52251359, "latitude": 29.2981721 }, "geometry": { "type": "Point", "coordinates": [ -98.52251359, 29.2981721 ] } },
{ "type": "Feature", "properties": { "PRJ_ID": 180, "PRJ_NAME": "Aggregation and Degradation of Dispersants and Oil by Microbial Exopolymers (ADDOMEX)", "ST_PROV": "CA, TX, VA, CAN - NB", "PRJ_ACTPRIME": "Chemical Aspects Research", "2010": 0, "2011": 0, "2012": 0, "2013": 0, "2014": 0, "2015": 7245430, "2016": 0, "2017": 0, "Tot_DWH_Fund_Cont": 7245430, "longitude": -94.8183126, "latitude": 29.31550877 }, "geometry": { "type": "Point", "coordinates": [ -94.8183126, 29.31550877 ] } },
{ "type": "Feature", "properties": { "PRJ_ID": 181, "PRJ_NAME": "Sampling for Reproductive and Developmental Recovery in Fish from the Gulf of Mexico One Year after Exposure to BP Oil\/Dispersants", "ST_PROV": "LA, TX", "PRJ_ACTPRIME": "Environmental Effects Research", "2010": 0, "2011": 115000, "2012": 0, "2013": 0, "2014": 0, "2015": 0, "2016": 0, "2017": 0, "Tot_DWH_Fund_Cont": 115000, "longitude": -101.8918202, "latitude": 33.58759341 }, "geometry": { "type": "Point", "coordinates": [ -101.8918202, 33.58759341 ] } },
{ "type": "Feature", "properties": { "PRJ_ID": 182, "PRJ_NAME": "Impacts of the Deepwater Horizon Oil\/Dispersant Pollution on Ecosystem Functioning: Assessing C and N Dynamics in Salt Marshes along an Exposure Gradient", "ST_PROV": "Alabama", "PRJ_ACTPRIME": "Environmental Effects Research", "2010": 0, "2011": 170132, "2012": 0, "2013": 0, "2014": 0, "2015": 0, "2016": 0, "2017": 0, "Tot_DWH_Fund_Cont": 170132, "longitude": -87.5403941, "latitude": 33.21562015 }, "geometry": { "type": "Point", "coordinates": [ -87.5403941, 33.21562015 ] } },
{ "type": "Feature", "properties": { "PRJ_ID": 183, "PRJ_NAME": "Assessing the Impact of Oil\/Dispersant on Marine Sponges and their Symbiotic Communities", "ST_PROV": "Alabama", "PRJ_ACTPRIME": "Environmental Effects Research", "2010": 0, "2011": 34395, "2012": 0, "2013": 0, "2014": 0, "2015": 0, "2016": 0, "2017": 0, "Tot_DWH_Fund_Cont": 34395, "longitude": -87.5403941, "latitude": 33.21562015 }, "geometry": { "type": "Point", "coordinates": [ -87.5403941, 33.21562015 ] } },
{ "type": "Feature", "properties": { "PRJ_ID": 184, "PRJ_NAME": "Geophysical Characterization of the Water Column and Seafloor on the Alabama Continental Shelf", "ST_PROV": "Alabama", "PRJ_ACTPRIME": "Physical Aspects Research", "2010": 0, "2011": 34150, "2012": 0, "2013": 0, "2014": 0, "2015": 0, "2016": 0, "2017": 0, "Tot_DWH_Fund_Cont": 34150, "longitude": -87.5403941, "latitude": 33.21562015 }, "geometry": { "type": "Point", "coordinates": [ -87.5403941, 33.21562015 ] } },
{ "type": "Feature", "properties": { "PRJ_ID": 185, "PRJ_NAME": "Microbial Responses to Hydrocarbon and Dispersant-Lab and Field-based Studies", "ST_PROV": "AL, OK, TN", "PRJ_ACTPRIME": "Chemical Aspects Research", "2010": 0, "2011": 80615, "2012": 0, "2013": 0, "2014": 0, "2015": 0, "2016": 0, "2017": 0, "Tot_DWH_Fund_Cont": 80615, "longitude": -87.5403941, "latitude": 33.21562015 }, "geometry": { "type": "Point", "coordinates": [ -87.5403941, 33.21562015 ] } },
{ "type": "Feature", "properties": { "PRJ_ID": 186, "PRJ_NAME": "Biorenewable Seafood Wastes for Removal or in Situ Remediation of Complex Oil Or Oil\/Dispersant Mixtures in the Gulf of Mexico", "ST_PROV": "Alabama", "PRJ_ACTPRIME": "Chemical Aspects Research", "2010": 0, "2011": 25300, "2012": 0, "2013": 0, "2014": 0, "2015": 0, "2016": 0, "2017": 0, "Tot_DWH_Fund_Cont": 25300, "longitude": -87.5403941, "latitude": 33.21562015 }, "geometry": { "type": "Point", "coordinates": [ -87.5403941, 33.21562015 ] } },
{ "type": "Feature", "properties": { "PRJ_ID": 187, "PRJ_NAME": "Chemical Engineering Applications to Study the Chemical Evolution and Biological Degradation of the Oil-Dispersant Systems and Subsequent Interaction with the Marine and Coastal Ecosystems", "ST_PROV": "AL, FL, NY", "PRJ_ACTPRIME": "Chemical Aspects Research", "2010": 0, "2011": 228377, "2012": 0, "2013": 0, "2014": 0, "2015": 0, "2016": 0, "2017": 0, "Tot_DWH_Fund_Cont": 228377, "longitude": -87.5403941, "latitude": 33.21562015 }, "geometry": { "type": "Point", "coordinates": [ -87.5403941, 33.21562015 ] } },
{ "type": "Feature", "properties": { "PRJ_ID": 188, "PRJ_NAME": "Determining the Degradation Rate Constants of the Hydrocarbons from the Macondo Well and Weathered Oil in Alabama Beaches and Marshes", "ST_PROV": "Alabama", "PRJ_ACTPRIME": "Chemical Aspects Research", "2010": 0, "2011": 74750, "2012": 0, "2013": 0, "2014": 0, "2015": 0, "2016": 0, "2017": 0, "Tot_DWH_Fund_Cont": 74750, "longitude": -87.5403941, "latitude": 33.21562015 }, "geometry": { "type": "Point", "coordinates": [ -87.5403941, 33.21562015 ] } },
{ "type": "Feature", "properties": { "PRJ_ID": 189, "PRJ_NAME": "Creating a Predictive Model of Microbially Mediated Carbon Remediation in the Gulf of Mexico", "ST_PROV": "Illinois", "PRJ_ACTPRIME": "Environmental Effects Research", "2010": 0, "2011": 0, "2012": 0, "2013": 238780, "2014": 0, "2015": 0, "2016": 0, "2017": 0, "Tot_DWH_Fund_Cont": 238780, "longitude": -87.97780032, "latitude": 41.70856181 }, "geometry": { "type": "Point", "coordinates": [ -87.97780032, 41.70856181 ] } },
{ "type": "Feature", "properties": { "PRJ_ID": 190, "PRJ_NAME": "Dispersion Research on Oil: Physics and Plankton Studies (DROPPS)", "ST_PROV": "CA, MD, MI, PA, PR, TX, WI, NOR, PRI", "PRJ_ACTPRIME": "Physical Aspects Research", "2010": 0, "2011": 6770000, "2012": 0, "2013": 0, "2014": 0, "2015": 0, "2016": 0, "2017": 0, "Tot_DWH_Fund_Cont": 6770000, "longitude": -97.7342306, "latitude": 30.28451377 }, "geometry": { "type": "Point", "coordinates": [ -97.7342306, 30.28451377 ] } },
{ "type": "Feature", "properties": { "PRJ_ID": 191, "PRJ_NAME": "Dispersion Research on Oil: Physics and Plankton Studies II (DROPPS II)", "ST_PROV": "MD, NJ, PA, TX, WI, NOR", "PRJ_ACTPRIME": "Physical Aspects Research", "2010": 0, "2011": 0, "2012": 0, "2013": 0, "2014": 0, "2015": 9236400, "2016": 0, "2017": 0, "Tot_DWH_Fund_Cont": 9236400, "longitude": -97.7342306, "latitude": 30.28451377 }, "geometry": { "type": "Point", "coordinates": [ -97.7342306, 30.28451377 ] } },
{ "type": "Feature", "properties": { "PRJ_ID": 192, "PRJ_NAME": "Exploring the Mechanisms of Nitrate-aided Biodegradation of Petroleum Hydrocarbon under Anaerobic Conditions", "ST_PROV": "Alabama", "PRJ_ACTPRIME": "Chemical Aspects Research", "2010": 0, "2011": 14375, "2012": 0, "2013": 0, "2014": 0, "2015": 0, "2016": 0, "2017": 0, "Tot_DWH_Fund_Cont": 14375, "longitude": -85.9571982, "latitude": 31.79878736 }, "geometry": { "type": "Point", "coordinates": [ -85.9571982, 31.79878736 ] } },
{ "type": "Feature", "properties": { "PRJ_ID": 193, "PRJ_NAME": "Analysis of Continental Shelf Meiofauna in the Northern Gulf of Mexico: Effects of the Deepwater Horizon Oil Spill Investigated during a Long Term Community Study (2007 -Present)", "ST_PROV": "AL, LA, MD, NV, TX, CAN - BC, CL, N, AUS - QLD", "PRJ_ACTPRIME": "Environmental Effects Research", "2010": 0, "2011": 0, "2012": 0, "2013": 641313, "2014": 0, "2015": 0, "2016": 0, "2017": 0, "Tot_DWH_Fund_Cont": 641313, "longitude": -85.9571982, "latitude": 31.79878736 }, "geometry": { "type": "Point", "coordinates": [ -85.9571982, 31.79878736 ] } },
{ "type": "Feature", "properties": { "PRJ_ID": 194, "PRJ_NAME": "Sampling of Megalopal and Larval Stages of Blue Crabs", "ST_PROV": "AL, FL, LA, TX", "PRJ_ACTPRIME": "Environmental Effects Research", "2010": 0, "2011": 130698, "2012": 0, "2013": 0, "2014": 0, "2015": 0, "2016": 0, "2017": 0, "Tot_DWH_Fund_Cont": 130698, "longitude": -90.11969806000001, "latitude": 29.941011 }, "geometry": { "type": "Point", "coordinates": [ -90.11969806, 29.941011 ] } },
{ "type": "Feature", "properties": { "PRJ_ID": 195, "PRJ_NAME": "Development of Cost-Efficient and Concentration-Independent Dispersants for Improved Oil Spill Remediation", "ST_PROV": "CA, LA, MS", "PRJ_ACTPRIME": "Oil System Safety Research", "2010": 0, "2011": 0, "2012": 1035730, "2013": 0, "2014": 0, "2015": 0, "2016": 0, "2017": 0, "Tot_DWH_Fund_Cont": 1035730, "longitude": -90.11969806000001, "latitude": 29.941011 }, "geometry": { "type": "Point", "coordinates": [ -90.11969806, 29.941011 ] } },
{ "type": "Feature", "properties": { "PRJ_ID": 196, "PRJ_NAME": "Visible Light Activated Photocatalysis for the Chemical Evaluation, Photodegradation of Oil-Dispersant Interaction in Deepwater Horizon Oil-Spill", "ST_PROV": "Alabama", "PRJ_ACTPRIME": "Oil System Safety Research", "2010": 0, "2011": 14375, "2012": 0, "2013": 0, "2014": 0, "2015": 0, "2016": 0, "2017": 0, "Tot_DWH_Fund_Cont": 14375, "longitude": -85.70638993, "latitude": 32.43180223 }, "geometry": { "type": "Point", "coordinates": [ -85.70638993, 32.43180223 ] } },
{ "type": "Feature", "properties": { "PRJ_ID": 197, "PRJ_NAME": "Chemical Dispersants in the Marine Environment: Harnessing the Fish Acute Phase Response for Rapid and Sensitive Evaluation of Exposure", "ST_PROV": "Alabama", "PRJ_ACTPRIME": "Environmental Effects Research", "2010": 0, "2011": 34500, "2012": 0, "2013": 0, "2014": 0, "2015": 0, "2016": 0, "2017": 0, "Tot_DWH_Fund_Cont": 34500, "longitude": -86.80742264, "latitude": 33.50257374 }, "geometry": { "type": "Point", "coordinates": [ -86.80742264, 33.50257374 ] } },
{ "type": "Feature", "properties": { "PRJ_ID": 198, "PRJ_NAME": "Assessing the Impact of the Deepwater Horizon Oil Spill on the Diamondback Terrapin: a Top Carnivore and Keystone Species in the Salt Marshes of Alabama", "ST_PROV": "Alabama", "PRJ_ACTPRIME": "Environmental Effects Research", "2010": 0, "2011": 25645, "2012": 0, "2013": 0, "2014": 0, "2015": 0, "2016": 0, "2017": 0, "Tot_DWH_Fund_Cont": 25645, "longitude": -86.80742264, "latitude": 33.50257374 }, "geometry": { "type": "Point", "coordinates": [ -86.80742264, 33.50257374 ] } },
{ "type": "Feature", "properties": { "PRJ_ID": 199, "PRJ_NAME": "Analysis of the Biodegradative Microbial Population and their Genes in Deepwater Horizon Oil Contaminated Water and Sediments of Coastal Alabama", "ST_PROV": "Alabama", "PRJ_ACTPRIME": "Environmental Effects Research", "2010": 0, "2011": 190900, "2012": 0, "2013": 0, "2014": 0, "2015": 0, "2016": 0, "2017": 0, "Tot_DWH_Fund_Cont": 190900, "longitude": -86.80742264, "latitude": 33.50257374 }, "geometry": { "type": "Point", "coordinates": [ -86.80742264, 33.50257374 ] } },
{ "type": "Feature", "properties": { "PRJ_ID": 200, "PRJ_NAME": "Development of High-Fidelity Lagrangian Tracking Module for Oceanic Dispersion-Sedimentation Predictions", "ST_PROV": "Alabama", "PRJ_ACTPRIME": "Physical Aspects Research", "2010": 0, "2011": 19965, "2012": 0, "2013": 0, "2014": 0, "2015": 0, "2016": 0, "2017": 0, "Tot_DWH_Fund_Cont": 19965, "longitude": -86.64401454, "latitude": 34.72601845 }, "geometry": { "type": "Point", "coordinates": [ -86.64401454, 34.72601845 ] } },
{ "type": "Feature", "properties": { "PRJ_ID": 201, "PRJ_NAME": "High-Fidelity Modeling of Transport of Oil-Derived Particulates Using an Equilibrium Eulerian Method", "ST_PROV": "Alabama", "PRJ_ACTPRIME": "Physical Aspects Research", "2010": 0, "2011": 12788, "2012": 0, "2013": 0, "2014": 0, "2015": 0, "2016": 0, "2017": 0, "Tot_DWH_Fund_Cont": 12788, "longitude": -86.64401454, "latitude": 34.72601845 }, "geometry": { "type": "Point", "coordinates": [ -86.64401454, 34.72601845 ] } },
{ "type": "Feature", "properties": { "PRJ_ID": 202, "PRJ_NAME": "Oil Spill Impact along the Alabama Coastal Areas", "ST_PROV": "AL, MS", "PRJ_ACTPRIME": "Physical Aspects Research", "2010": 0, "2011": 15000, "2012": 0, "2013": 0, "2014": 0, "2015": 0, "2016": 0, "2017": 0, "Tot_DWH_Fund_Cont": 15000, "longitude": -86.64401454, "latitude": 34.72601845 }, "geometry": { "type": "Point", "coordinates": [ -86.64401454, 34.72601845 ] } },
{ "type": "Feature", "properties": { "PRJ_ID": 203, "PRJ_NAME": "Nanostructure Surface Plasmon Resonance Enhanced Spectroscopic Sensing for Hydrocarbon Contaminants in the Gulf of Mexico", "ST_PROV": "Alabama", "PRJ_ACTPRIME": "Oil System Safety Research", "2010": 0, "2011": 40106, "2012": 0, "2013": 0, "2014": 0, "2015": 0, "2016": 0, "2017": 0, "Tot_DWH_Fund_Cont": 40106, "longitude": -86.64401454, "latitude": 34.72601845 }, "geometry": { "type": "Point", "coordinates": [ -86.64401454, 34.72601845 ] } },
{ "type": "Feature", "properties": { "PRJ_ID": 204, "PRJ_NAME": "Impacts of the 2010 Deep Water Horizon Oil Spill on Estuarine Bottlenose Dolphin Populations in the West Florida Panhandle", "ST_PROV": "FL, MI", "PRJ_ACTPRIME": "Environmental Effects Research", "2010": 204386, "2011": 0, "2012": 0, "2013": 0, "2014": 0, "2015": 0, "2016": 0, "2017": 0, "Tot_DWH_Fund_Cont": 204386, "longitude": -81.20005805, "latitude": 28.60242242 }, "geometry": { "type": "Point", "coordinates": [ -81.20005805, 28.60242242 ] } },